     3.03           OBSERVATION DATA    M: Mixed            RINEX VERSION / TYPE
RTKCONV 2.4.3 Emlid                     20190213 151833 UTC PGM / RUN BY / DATE 
log: C:\Users\floor melman\Downloads\2018-09-12_13h13m_000  COMMENT             
format: Septentrio                                          COMMENT             
                                                            MARKER NAME         
                                                            MARKER NUMBER       
                                                            MARKER TYPE         
                                                            OBSERVER / AGENCY   
                                                            REC # / TYPE / VERS 
                                                            ANT # / TYPE        
  3904163.1268   301792.2815  5017766.8439                  APPROX POSITION XYZ 
        0.0000        0.0000        0.0000                  ANTENNA: DELTA H/E/N
G    4 C1C L1C D1C S1C                                      SYS / # / OBS TYPES 
R    4 C1C L1C D1C S1C                                      SYS / # / OBS TYPES 
E    4 C1C L1C D1C S1C                                      SYS / # / OBS TYPES 
  2018     9    12    11    14   19.0000000     GPS         TIME OF FIRST OBS   
  2018     9    12    11    45   30.0000000     GPS         TIME OF LAST OBS    
G                                                           SYS / PHASE SHIFT   
R                                                           SYS / PHASE SHIFT   
E                                                           SYS / PHASE SHIFT   
 10 R06 -4 R07  5 R08  6 R13 -2 R14 -7 R15  0 R21  4 R22 -3 GLONASS SLOT / FRQ #
    R23  3 R24  2                                           GLONASS SLOT / FRQ #
 C1C    0.000 C1P    0.000 C2C    0.000 C2P    0.000        GLONASS COD/PHS/BIS 
                                                            END OF HEADER       
> 2018  9 12 11 14 19.0000000  0 18 
G18  20599454.752   108250864.512        5373.865          49.750  
G 8  20390300.084   107151750.655        3014.472          53.750  
E26  23008605.288   120911037.332        1556.577          51.000  
G10  21459445.377   112770147.865        1511.129          48.000  
R 8  21950589.818   117544414.742        7640.606          46.250  
G27  21366352.632   112280939.285         821.191          50.250  
G22  24157606.877   126949083.872        6930.000          40.000  
R23  20542990.075   109891151.981        6134.072          38.750  
R21  23382491.646   125124447.552        -203.428          45.750  
G20  23315336.535   122522919.008         117.437          40.750  
G14  24607155.303   129311473.085        6517.956          40.250  
E 7  24997215.774   131361251.246        3376.879          50.000  
R 6  21493791.996   114694994.722         445.263          38.750  
E20  49920278.074   262332834.463        5971.413          42.750  
G 1  22600037.781   118764001.136        6367.001          40.000  
R22  19652226.792   104904921.201        2180.215          52.500  
R 7  19841358.014   106212345.050        4446.248          51.250  
G11  21691587.376   113990064.911        6195.008          38.000  
> 2018  9 12 11 14 20.0000000  0 19                     
G32  23477367.504   123374396.992        5947.354          44.000  
G18  20598432.169   108245490.816        5373.293          49.750  
G 8  20389726.512   107148736.494        3013.676          53.750  
E26  23008309.090   120909480.857        1556.198          50.750  
G10  21459157.869   112768637.055        1510.497          48.000  
R 8  21949163.071   117536774.349        7640.070          46.000  
G27  21366196.397   112280118.316         820.579          50.250  
G22  24156288.118   126942153.915        6929.711          40.250  
R23  20541843.333   109885017.987        6133.641          38.500  
R21  23382529.684   125124651.133        -203.768          45.500  
G20  23315314.238   122522801.838         116.867          40.750  
G14  24605915.037   129304955.450        6517.317          40.250  
E 7  24996573.213   131357874.539        3376.295          50.000  
R 6  21493708.594   114694549.866         444.282          38.750  
E20  49919141.781   262326863.248        5970.926          42.500  
G 1  22598826.238   118757634.441        6366.632          40.000  
R22  19651818.394   104902741.260        2179.520          52.500  
R 7  19840527.485   106207899.276        4445.161          51.500  
G11  21690408.509   113983870.207        6194.376          38.000  
> 2018  9 12 11 14 21.0000000  0 19                     
G32  23476235.796   123368449.807        5947.046          44.000  
G18  20597409.688   108240117.657        5373.000          50.000  
G 8  20389153.061   107145722.993        3013.274          53.750  
E26  23008012.944   120907924.674        1556.065          50.750  
G10  21458870.477   112767126.850        1509.979          48.250  
R 8  21947736.403   117529134.443        7639.703          46.250  
G27  21366040.266   112279297.864         820.192          50.250  
G22  24154969.391   126935224.208        6929.730          40.250  
R23  20540696.653   109878884.398        6133.588          38.750  
R21  23382567.787   125124854.964        -203.957          45.500  
G20  23315292.016   122522685.015         116.753          40.750  
G14  24604674.801   129298438.012        6517.459          40.000  
E 7  24995930.771   131354498.430        3375.811          49.500  
R 6  21493625.333   114694105.723         443.774          38.500  
E20  49918005.551   262320892.386        5970.671          42.500  
G 1  22597614.761   118751268.070        6366.236          40.000  
R22  19651410.126   104900561.941        2179.065          52.750  
R 7  19839697.158   106203454.486        4444.399          51.250  
G11  21689229.743   113977675.905        6194.103          38.000  
> 2018  9 12 11 14 22.0000000  0 19                     
G32  23475104.166   123362503.096        5946.343          44.000  
G18  20596387.309   108234745.023        5372.137          50.000  
G 8  20388579.741   107142710.154        3012.356          53.750  
E26  23007716.864   120906368.786        1555.582          50.750  
G10  21458583.204   112765617.234        1509.138          48.250  
R 8  21946309.840   117521495.028        7639.058          46.250  
G27  21365884.228   112278477.916         819.512          50.250  
G22  24153650.702   126928294.761        6929.239          40.500  
R23  20539550.042   109872751.246        6132.885          38.750  
R21  23382605.958   125125059.063        -204.338          45.750  
G20  23315269.854   122522568.535         116.105          40.500  
G14  24603434.601   129291920.790        6516.991          39.750  
E 7  24995288.419   131351122.881        3375.114          50.000  
R 6  21493542.205   114693662.322         442.804          38.750  
E20  49916869.388   262314921.893        5970.275          42.750  
G 1  22596403.356   118744902.028        6365.717          40.000  
R22  19651001.982   104898383.246        2178.194          52.750  
R 7  19838867.018   106199010.690        4443.069          51.250  
G11  21688051.101   113971482.032        6193.575          38.250  
> 2018  9 12 11 14 23.0000000  0 19                     
G32  23473972.608   123356556.714        5946.220          43.750  
G18  20595364.999   108229372.743        5372.100          49.750  
G 8  20388006.515   107139697.820        3012.042          53.500  
E26  23007420.804   120904813.023        1555.626          50.750  
G10  21458296.023   112764108.073        1508.908          48.250  
R 8  21944883.335   117513855.908        7639.008          46.250  
G27  21365728.263   112277658.317         819.392          50.250  
G22  24152332.039   126921365.404        6929.224          40.500  
R23  20538403.541   109866618.359        6132.625          38.750  
R21  23382644.153   125125263.262        -204.234          46.000  
G20  23315247.721   122522452.220         116.123          40.750  
G14  24602194.414   129285403.601        6517.060          40.000  
E 7  24994646.168   131347747.782        3374.849          50.000  
R 6  21493459.176   114693219.493         442.602          38.750  
E20  49915733.267   262308951.616        5970.106          42.750  
G 1  22595191.979   118738536.141        6365.984          40.000  
R22  19650593.932   104896204.992        2178.018          52.500  
R 7  19838037.041   106194567.733        4442.494          51.250  
G11  21686872.516   113965288.407        6193.388          38.250  
> 2018  9 12 11 14 24.0000000  0 19                     
G32  23472841.143   123350610.917        5945.553          43.750  
G18  20594342.817   108224001.129        5371.218          49.750  
G 8  20387433.436   107136686.270        3011.104          53.500  
E26  23007124.828   120903257.680        1555.074          50.500  
G10  21458008.973   112762599.620        1508.168          48.250  
R 8  21943456.931   117506217.338        7638.286          46.500  
G27  21365572.426   112276839.362         818.607          50.250  
G22  24151013.434   126914436.417        6928.815          40.250  
R23  20537257.096   109860485.995        6132.138          38.750  
R21  23382682.448   125125467.855        -204.796          46.250  
G20  23315225.669   122522336.381         115.538          40.500  
G14  24600954.309   129278886.755        6516.656          39.500  
E 7  24994004.044   131344373.378        3373.999          49.750  
R 6  21493376.355   114692777.525         441.530          38.750  
E20  49914597.240   262302981.818        5969.525          42.500  
G 1  22593980.705   118732170.724        6365.153          40.000  
R22  19650186.031   104894027.479        2177.134          52.750  
R 7  19837207.279   106190125.919        4441.223          51.250  
G11  21685694.056   113959095.310        6192.932          38.250  
> 2018  9 12 11 14 25.0000000  0 19                     
G32  23471709.755   123344665.531        5945.453          43.750  
G18  20593320.716   108218629.922        5371.250          50.000  
G 8  20386860.467   107133675.293        3010.921          53.500  
E26  23006828.890   120901702.534        1555.282          50.750  
G10  21457722.024   112761091.689        1507.916          48.250  
R 8  21942030.579   117498579.074        7638.299          46.500  
G27  21365416.668   112276020.818         818.549          50.250  
G22  24149694.852   126907507.581        6929.047          40.500  
R23  20536110.753   109854353.967        6132.084          38.750  
R21  23382720.782   125125672.595        -204.512          46.250  
G20  23315203.666   122522220.789         115.677          40.750  
G14  24599714.226   129272370.009        6516.986          39.500  
E 7  24993362.010   131340999.463        3373.895          49.750  
R 6  21493293.670   114692336.169         441.234          38.750  
E20  49913461.265   262297012.295        5969.724          42.500  
G 1  22592769.479   118725805.539        6365.208          40.000  
R22  19649778.234   104891850.490        2176.952          52.750  
R 7  19836377.685   106185684.991        4440.700          51.250  
G11  21684515.657   113952902.533        6192.918          38.250  
> 2018  9 12 11 14 26.0000000  0 19                     
G32  23470578.416   123338720.412        5945.120          43.500  
G18  20592298.679   108213259.050        5370.771          50.000  
G 8  20386287.587   107130664.789        3010.386          53.500  
E26  23006532.969   120900147.476        1555.093          50.750  
G10  21457435.142   112759584.160        1507.322          48.250  
R 8  21940604.265   117490941.036        7637.972          46.500  
G27  21365260.962   112275202.590         818.139          50.250  
G22  24148376.276   126900578.814        6928.760          40.750  
R23  20534964.456   109848222.120        6131.801          38.750  
R21  23382759.158   125125877.415        -204.715          46.250  
G20  23315181.685   122522105.340         115.399          40.750  
G14  24598474.152   129265853.276        6516.707          39.750  
E 7  24992720.055   131337625.934        3373.434          50.000  
R 6  21493211.085   114691895.324         440.637          39.250  
E20  49912325.325   262291042.956        5969.343          42.500  
G 1  22591558.271   118719440.475        6365.083          40.250  
R22  19649370.521   104889673.919        2176.443          52.750  
R 7  19835548.232   106181244.851        4439.772          51.250  
G11  21683337.317   113946710.007        6192.387          38.250  
> 2018  9 12 11 14 27.0000000  0 19                     
G32  23469447.148   123332775.657        5944.377          43.750  
G18  20591276.718   108207888.576        5370.149          50.000  
G 8  20385714.812   107127654.816        3009.562          53.750  
E26  23006237.088   120898592.585        1554.672          50.750  
G10  21457148.354   112758077.099        1506.700          48.250  
R 8  21939178.043   117483303.339        7637.405          46.500  
G27  21365105.331   112274384.748         817.469          50.250  
G22  24147057.726   126893650.137        6928.458          41.000  
R23  20533818.214   109842090.569        6131.220          39.000  
R21  23382797.549   125126082.367        -205.110          46.000  
G20  23315159.739   122521990.112         114.958          41.000  
G14  24597234.093   129259336.613        6516.654          39.750  
E 7  24992078.180   131334252.861        3372.717          50.250  
R 6  21493128.597   114691455.049         439.894          39.000  
E20  49911189.437   262285073.862        5968.744          42.750  
G 1  22590347.115   118713075.629        6364.569          40.500  
R22  19648962.902   104887497.837        2175.705          52.750  
R 7  19834718.937   106176805.594        4438.675          51.250  
G11  21682159.010   113940517.718        6192.056          38.500  
> 2018  9 12 11 14 28.0000000  0 19                     
G32  23468315.977   123326831.366        5944.046          44.000  
G18  20590254.853   108202518.596        5369.769          50.000  
G 8  20385142.153   107124645.496        3008.996          53.750  
E26  23005941.255   120897037.975        1554.432          50.750  
G10  21456861.676   112756570.627        1506.204          48.250  
R 8  21937751.899   117475666.121        7636.939          46.750  
G27  21364949.796   112273567.396         817.053          50.250  
G22  24145739.225   126886721.723        6928.338          41.000  
R23  20532672.033   109835959.418        6130.795          39.000  
R21  23382835.975   125126287.571        -205.283          46.000  
G20  23315137.862   122521875.197         114.756          41.000  
G14  24595994.075   129252820.159        6516.348          39.500  
E 7  24991436.422   131330880.363        3372.155          50.250  
R 6  21493046.256   114691015.497         439.014          39.250  
E20  49910053.617   262279105.116        5968.562          42.750  
G 1  22589136.005   118706711.080        6364.382          40.250  
R22  19648555.395   104885322.359        2175.105          53.000  
R 7  19833889.828   106172367.329        4437.769          51.500  
G11  21680980.806   113934325.873        6191.633          38.250  
> 2018  9 12 11 14 29.0000000  0 19                     
G32  23467184.881   123320887.515        5943.387          44.250  
G18  20589233.084   108197149.119        5369.032          50.000  
G 8  20384569.615   107121636.791        3008.146          53.500  
E26  23005645.469   120895483.616        1553.994          51.000  
G10  21456575.100   112755064.727        1505.397          48.250  
R 8  21936325.835   117468029.325        7636.356          47.000  
G27  21364794.348   112272750.511         816.470          50.250  
G22  24144420.774   126879793.499        6927.914          41.250  
R23  20531525.986   109829828.653        6130.358          39.250  
R21  23382874.446   125126492.994        -205.763          46.000  
G20  23315116.039   122521760.594         114.218          41.250  
G14  24594754.067   129246303.873        6515.908          39.750  
E 7  24990794.766   131327508.410        3371.410          50.250  
R 6  21492964.006   114690576.617         438.244          39.250  
E20  49908917.857   262273136.708        5967.967          42.750  
G 1  22587924.942   118700346.838        6363.724          40.500  
R22  19648147.998   104883147.450        2174.373          53.000  
R 7  19833060.898   106167930.011        4436.599          51.500  
G11  21679802.670   113928134.396        6191.127          38.500  
> 2018  9 12 11 14 30.0000000  0 19                     
G32  23466053.905   123314944.278        5942.828          44.250  
G18  20588211.439   108191780.298        5368.504          50.000  
G 8  20383997.226   107118628.871        3007.505          53.500  
E26  23005349.767   120893929.676        1553.750          51.000  
G10  21456288.664   112753559.547        1504.798          48.250  
R 8  21934899.883   117460393.111        7635.948          47.000  
G27  21364639.022   112271934.272         815.909          50.250  
G22  24143102.389   126872865.651        6927.711          41.500  
R23  20530380.014   109823698.434        6129.897          39.250  
R21  23382912.995   125126698.808        -206.095          46.250  
G20  23315094.310   122521646.464         113.854          41.000  
G14  24593514.115   129239787.925        6515.657          39.750  
E 7  24990153.241   131324137.168        3370.850          50.250  
R 6  21492881.890   114690138.570         437.474          39.000  
E20  49907782.192   262267168.791        5967.707          43.000  
G 1  22586713.955   118693983.047        6363.661          40.500  
R22  19647740.731   104880973.291        2173.801          52.750  
R 7  19832232.169   106163493.806        4435.670          51.500  
G11  21678624.602   113921943.461        6190.642          38.250  
> 2018  9 12 11 14 31.0000000  0 19                     
G32  23464922.982   123309001.365        5943.006          44.000  
G18  20587189.863   108186411.862        5368.354          50.000  
G 8  20383424.942   107115621.499        3007.187          53.500  
E26  23005054.101   120892375.896        1553.773          50.750  
G10  21456002.325   112752054.824        1504.568          48.250  
R 8  21933473.982   117452757.179        7635.941          47.000  
G27  21364483.764   112271118.405         815.790          50.250  
G22  24141784.017   126865937.919        6927.699          41.500  
R23  20529234.170   109817568.490        6129.836          39.750  
R21  23382951.537   125126904.739        -205.979          46.250  
G20  23315072.625   122521532.528         113.881          41.000  
G14  24592274.171   129233272.034        6515.951          39.500  
E 7  24989511.795   131320766.364        3370.720          50.000  
R 6  21492799.908   114689701.114         437.136          39.000  
E20  49906646.581   262261201.111        5967.697          42.750  
G 1  22585503.001   118687619.441        6363.706          40.500  
R22  19647333.552   104878799.604        2173.563          52.750  
R 7  19831403.604   106159058.432        4435.073          51.500  
G11  21677446.571   113915752.792        6190.728          38.000  
> 2018  9 12 11 14 32.0000000  0 19                     
G32  23463792.155   123303058.918        5942.245          44.250  
G18  20586168.371   108181043.905        5367.807          50.250  
G 8  20382852.787   107112614.772        3006.495          53.500  
E26  23004758.471   120890822.361        1553.464          51.000  
G10  21455716.088   112750550.663        1504.035          48.250  
R 8  21932048.168   117445121.653        7635.340          47.000  
G27  21364328.593   112270302.999         815.267          50.250  
G22  24140465.689   126859010.379        6927.487          41.500  
R23  20528088.368   109811438.916        6129.453          40.000  
R21  23382990.128   125127110.898        -206.167          46.250  
G20  23315050.998   122521418.898         113.522          41.250  
G14  24591034.242   129226756.314        6515.621          39.750  
E 7  24988870.454   131317396.106        3370.074          50.250  
R 6  21492718.077   114689264.344         436.480          39.000  
E20  49905511.043   262255233.774        5967.313          42.750  
G 1  22584292.105   118681256.142        6363.183          40.500  
R22  19646926.470   104876626.501        2172.866          52.750  
R 7  19830575.213   106154624.036        4434.009          51.500  
G11  21676268.616   113909562.502        6190.132          38.000  
> 2018  9 12 11 14 33.0000000  0 19                     
G32  23462661.452   123297116.979        5941.912          44.250  
G18  20585146.980   108175676.512        5367.343          50.250  
G 8  20382280.765   107109608.734        3005.916          53.500  
E26  23004462.907   120889269.152        1553.338          51.000  
G10  21455429.974   112749047.141        1503.448          48.250  
R 8  21930622.424   117437486.590        7635.052          47.250  
G27  21364173.534   112269488.149         814.816          50.250  
G22  24139147.420   126852083.135        6927.342          41.250  
R23  20526942.717   109805309.806        6129.238          40.250  
R21  23383028.776   125127317.341        -206.463          46.250  
G20  23315029.448   122521305.656         113.317          41.250  
G14  24589794.362   129220240.836        6515.552          39.500  
E 7  24988229.228   131314026.472        3369.579          50.250  
R 6  21492636.387   114688828.333         435.967          39.000  
E20  49904375.586   262249266.833        5966.979          43.000  
G 1  22583081.285   118674893.205        6362.946          40.500  
R22  19646519.495   104874454.057        2172.376          52.500  
R 7  19829747.017   106150190.674        4433.082          51.750  
G11  21675090.707   113903372.656        6189.872          38.000  
> 2018  9 12 11 14 34.0000000  0 19                     
G32  23461530.830   123291175.479        5941.375          44.250  
G18  20584125.679   108170309.593        5366.808          50.250  
G 8  20381708.862   107106603.313        3005.235          53.500  
E26  23004167.392   120887716.183        1552.975          51.000  
G10  21455143.963   112747544.164        1502.813          48.250  
R 8  21929196.760   117429851.962        7634.496          47.250  
G27  21364018.560   112268673.750         814.291          50.250  
G22  24137829.211   126845156.102        6927.118          41.500  
R23  20525797.083   109799181.047        6128.766          40.500  
R21  23383067.434   125127523.993        -206.689          46.250  
G20  23315007.961   122521192.698         112.917          41.000  
G14  24588554.514   129213725.526        6515.290          39.250  
E 7  24987588.105   131310657.370        3368.947          50.250  
R 6  21492554.820   114688393.027         435.103          39.000  
E20  49903240.190   262243300.198        5966.606          43.000  
G 1  22581870.505   118668530.526        6362.748          40.500  
R22  19646112.621   104872282.184        2171.720          52.500  
R 7  19828919.008   106145758.268        4432.011          51.500  
G11  21673912.842   113897183.193        6189.442          38.250  
> 2018  9 12 11 14 35.0000000  0 19                     
G32  23460400.298   123285234.394        5940.787          44.250  
G18  20583104.466   108164943.134        5366.180          50.250  
G 8  20381137.079   107103598.495        3004.536          53.500  
E26  23003871.924   120886163.445        1552.626          50.500  
G10  21454858.062   112746041.737        1502.128          48.250  
R 8  21927771.164   117422217.731        7634.035          47.250  
G27  21363863.676   112267859.810         813.727          50.250  
G22  24136511.039   126838229.255        6926.807          41.750  
R23  20524651.561   109793052.655        6128.230          41.000  
R21  23383106.146   125127730.861        -206.923          46.500  
G20  23314986.524   122521080.018         112.581          41.000  
G14  24587314.707   129207210.345        6515.127          39.250  
E 7  24986947.079   131307288.787        3368.348          50.000  
R 6  21492473.355   114687958.373         434.416          38.750  
E20  49902104.857   262237333.896        5966.160          42.750  
G 1  22580659.777   118662168.150        6362.329          40.500  
R22  19645705.852   104870110.872        2171.059          52.500  
R 7  19828091.162   106141326.783        4431.061          51.500  
G11  21672735.031   113890994.064        6188.943          38.250  
> 2018  9 12 11 14 36.0000000  0 19                     
G32  23459269.866   123279293.796        5940.272          44.250  
G18  20582083.358   108159577.207        5365.605          50.000  
G 8  20380565.420   107100594.344        3003.716          53.500  
E26  23003576.516   120884611.013        1552.135          50.750  
G10  21454572.270   112744539.909        1501.445          48.250  
R 8  21926345.657   117414583.994        7633.419          47.750  
G27  21363708.886   112267046.387         813.053          50.250  
G22  24135192.912   126831302.671        6926.372          42.000  
R23  20523506.121   109786924.679        6127.741          41.000  
R21  23383144.907   125127938.026        -207.373          46.500  
G20  23314965.142   122520967.695         112.072          41.000  
G14  24586074.958   129200695.408        6514.657          39.250  
E 7  24986306.164   131303920.801        3367.569          50.000  
R 6  21492392.037   114687524.476         433.310          39.000  
E20  49900969.592   262231367.959        5965.664          42.750  
G 1  22579449.081   118655806.098        6361.716          40.500  
R22  19645299.196   104867940.205        2170.208          52.500  
R 7  19827263.516   106136896.314        4429.824          51.500  
G11  21671557.292   113884805.373        6188.453          38.250  
> 2018  9 12 11 14 37.0000000  0 19                     
G32  23458139.520   123273353.627        5940.117          44.500  
G18  20581062.341   108154211.749        5365.289          50.000  
G 8  20379993.874   107097590.798        3003.286          53.500  
E26  23003281.148   120883058.809        1552.101          51.000  
G10  21454286.585   112743038.631        1501.128          48.250  
R 8  21924920.202   117406950.626        7633.282          47.750  
G27  21363554.181   112266233.412         812.819          50.250  
G22  24133874.818   126824376.264        6926.399          41.750  
R23  20522360.784   109780797.061        6127.554          40.750  
R21  23383183.722   125128145.379        -207.399          46.500  
G20  23314943.821   122520855.655         111.923          41.250  
G14  24584835.230   129194180.584        6514.854          39.250  
E 7  24985665.343   131300553.336        3367.243          50.000  
R 6  21492310.849   114687091.220         433.022          39.000  
E20  49899834.384   262225402.334        5965.511          42.750  
G 1  22578238.435   118649444.299        6361.685          40.750  
R22  19644892.641   104865770.088        2169.881          52.500  
R 7  19826436.041   106132466.746        4429.190          51.250  
G11  21670379.628   113878617.025        6188.319          38.250  
> 2018  9 12 11 14 38.0000000  0 19                     
G32  23457009.289   123267414.077        5939.027          44.500  
G18  20580041.445   108148846.928        5364.321          50.000  
G 8  20379422.482   107094588.063        3002.174          53.500  
E26  23002985.857   120881507.025        1551.406          50.750  
G10  21454001.028   112741538.088        1499.933          48.250  
R 8  21923494.859   117399317.830        7632.362          48.000  
G27  21363399.596   112265421.071         811.844          50.250  
G22  24132556.809   126817450.246        6925.788          42.000  
R23  20521215.508   109774670.009        6126.490          41.000  
R21  23383222.571   125128353.097        -208.017          46.500  
G20  23314922.577   122520744.080         111.147          41.250  
G14  24583595.560   129187666.117        6514.292          39.000  
E 7  24985024.653   131297186.587        3366.199          50.000  
R 6  21492229.836   114686658.817         431.877          38.750  
E20  49898699.269   262219437.219        5964.745          43.000  
G 1  22577027.898   118643082.983        6360.851          41.000  
R22  19644486.223   104863600.727        2168.818          52.500  
R 7  19825608.773   106128038.309        4427.717          51.500  
G11  21669202.097   113872429.236        6187.417          38.500  
> 2018  9 12 11 14 39.0000000  0 19                     
G32  23455879.143   123261475.002        5938.938          44.500  
G18  20579020.649   108143482.627        5364.136          50.000  
G 8  20378851.205   107091585.977        3001.865          53.500  
E26  23002690.623   120879955.527        1551.469          50.750  
G10  21453715.589   112740038.127        1499.809          48.500  
R 8  21922069.600   117391685.484        7632.236          48.000  
G27  21363245.114   112264609.244         811.683          50.250  
G22  24131238.837   126810524.479        6925.766          41.750  
R23  20520070.300   109768543.372        6126.459          40.750  
R21  23383261.473   125128561.070        -208.016          46.500  
G20  23314901.412   122520632.841         111.214          41.250  
G14  24582355.961   129181151.854        6514.278          39.000  
E 7  24984384.082   131293820.414        3365.961          50.000  
R 6  21492148.952   114686227.147         431.380          38.750  
E20  49897564.213   262213472.468        5964.628          42.750  
G 1  22575817.420   118636721.994        6360.835          41.000  
R22  19644079.932   104861431.975        2168.589          52.750  
R 7  19824781.682   106123610.866        4427.060          51.250  
G11  21668024.646   113866241.848        6187.341          38.500  
> 2018  9 12 11 14 40.0000000  0 19                     
G32  23454749.078   123255536.376        5938.422          44.500  
G18  20577999.948   108138118.833        5363.491          50.000  
G 8  20378280.052   107088584.529        3001.097          53.500  
E26  23002395.447   120878404.296        1551.072          51.000  
G10  21453430.258   112738538.733        1499.189          48.500  
R 8  21920644.423   117384053.570        7631.693          48.000  
G27  21363090.716   112263797.892         811.136          50.250  
G22  24129920.902   126803598.924        6925.557          42.000  
R23  20518925.124   109762417.132        6125.993          40.500  
R21  23383300.391   125128769.265        -208.324          46.500  
G20  23314880.311   122520521.918         110.715          41.250  
G14  24581116.415   129174637.766        6514.030          38.750  
E 7  24983743.620   131290454.803        3365.259          50.250  
R 6  21492068.201   114685796.113         430.643          38.500  
E20  49896429.217   262207508.060        5964.256          43.250  
G 1  22574606.997   118630361.294        6360.496          40.750  
R22  19643673.758   104859263.806        2167.880          52.500  
R 7  19823954.766   106119184.438        4425.935          51.250  
G11  21666847.292   113860054.846        6186.923          38.250  
> 2018  9 12 11 14 41.0000000  0 19                     
G32  23453619.087   123249598.103        5938.117          44.500  
G18  20576979.317   108132755.431        5363.223          50.000  
G 8  20377708.998   107085583.614        3000.680          53.500  
E26  23002100.300   120876853.223        1551.006          51.000  
G10  21453145.021   112737039.824        1498.718          48.500  
R 8  21919219.290   117376421.965        7631.458          48.000  
G27  21362936.398   112262986.925         810.819          50.250  
G22  24128602.977   126796673.474        6925.417          42.000  
R23  20517779.987   109756291.170        6125.829          40.250  
R21  23383339.340   125128977.626        -208.454          46.500  
G20  23314859.248   122520411.196         110.627          41.500  
G14  24579876.877   129168123.761        6514.022          39.000  
E 7  24983103.232   131287089.631        3364.950          50.250  
R 6  21491987.552   114685365.675         430.154          38.750  
E20  49895294.264   262201543.895        5964.091          43.000  
G 1  22573396.614   118624000.788        6360.453          40.750  
R22  19643267.680   104857096.112        2167.488          52.500  
R 7  19823128.018   106114758.896        4425.124          51.250  
G11  21665670.008   113853868.133        6186.582          38.250  
> 2018  9 12 11 14 42.0000000  0 19                     
G32  23452489.133   123243660.094        5937.917          44.500  
G18  20575958.737   108127392.343        5363.014          50.000  
G 8  20377138.032   107082583.151        3000.303          53.500  
E26  23001805.172   120875302.222        1551.024          50.750  
G10  21452859.863   112735541.288        1498.407          48.250  
R 8  21917794.210   117368790.584        7631.379          48.000  
G27  21362782.131   112262176.246         810.619          50.250  
G22  24127285.055   126789748.071        6925.484          41.750  
R23  20516634.860   109750165.415        6125.691          40.250  
R21  23383378.278   125129186.038        -208.359          46.500  
G20  23314838.216   122520300.600         110.704          41.250  
G14  24578637.324   129161609.743        6514.116          39.000  
E 7  24982462.921   131283724.829        3364.750          50.000  
R 6  21491906.995   114684935.759         429.743          38.500  
E20  49894159.341   262195579.866        5963.982          42.750  
G 1  22572186.264   118617640.398        6360.369          41.000  
R22  19642861.680   104854928.811        2167.204          52.500  
R 7  19822301.403   106110334.106        4424.529          51.500  
G11  21664492.793   113847681.621        6186.418          38.250  
> 2018  9 12 11 14 43.0000000  0 19                     
G32  23451359.245   123237722.439        5937.467          44.500  
G18  20574938.232   108122029.675        5362.389          50.000  
G 8  20376567.171   107079583.239        2999.635          53.500  
E26  23001510.077   120873751.392        1550.732          51.000  
G10  21452574.804   112734043.220        1497.792          48.250  
R 8  21916369.201   117361159.556        7630.882          48.250  
G27  21362627.940   112261365.960         810.037          50.250  
G22  24125967.157   126782822.804        6925.190          41.750  
R23  20515489.707   109744039.961        6125.297          40.000  
R21  23383417.228   125129394.569        -208.559          46.500  
G20  23314817.225   122520190.214         110.243          41.250  
G14  24577397.787   129155095.812        6513.938          38.750  
E 7  24981822.697   131280360.491        3364.059          50.250  
R 6  21491826.534   114684506.409         428.994          38.500  
E20  49893024.463   262189616.087        5963.617          43.000  
G 1  22570975.958   118611280.226        6359.924          41.000  
R22  19642455.773   104852762.011        2166.515          52.500  
R 7  19821474.948   106105910.156        4423.523          51.500  
G11  21663315.628   113841495.384        6186.146          38.250  
> 2018  9 12 11 14 44.0000000  0 19                     
G32  23450229.471   123231785.405        5936.722          44.500  
G18  20573917.849   108116667.640        5361.580          50.000  
G 8  20375996.461   107076584.105        2998.607          53.250  
E26  23001215.067   120872200.979        1550.082          51.250  
G10  21452289.885   112732545.883        1496.900          48.250  
R 8  21914944.300   117353529.107        7630.028          48.250  
G27  21362473.870   112260556.304         809.233          50.000  
G22  24124649.316   126775897.890        6924.557          42.000  
R23  20514344.683   109737915.054        6124.427          39.750  
R21  23383456.237   125129603.480        -209.212          46.250  
G20  23314796.338   122520080.299         109.689          41.000  
G14  24576158.300   129148582.204        6513.309          38.500  
E 7  24981182.615   131276996.863        3363.108          50.250  
R 6  21491746.225   114684077.907         427.862          38.500  
E20  49891889.678   262183652.816        5962.997          43.250  
G 1  22569765.734   118604920.517        6359.287          41.000  
R22  19642050.004   104850595.950        2165.604          52.500  
R 7  19820648.707   106101487.314        4422.131          51.500  
G11  21662138.568   113835309.724        6185.222          38.000  
> 2018  9 12 11 14 45.0000000  0 19                     
G32  23449099.787   123225848.864        5936.109          44.750  
G18  20572897.563   108111306.112        5361.098          50.000  
G 8  20375425.879   107073585.646        2997.978          53.250  
E26  23000920.109   120870650.867        1549.829          51.000  
G10  21452005.083   112731049.162        1496.349          48.250  
R 8  21913519.471   117345899.096        7629.644          48.250  
G27  21362319.900   112259747.167         808.762          50.000  
G22  24123331.539   126768973.246        6924.438          42.000  
R23  20513199.705   109731790.575        6124.190          39.500  
R21  23383495.277   125129812.650        -209.427          46.000  
G20  23314775.511   122519970.731         109.386          41.000  
G14  24574918.858   129142068.834        6513.170          38.500  
E 7  24980542.654   131273633.829        3362.576          50.000  
R 6  21491666.037   114683650.126         427.359          38.500  
E20  49890754.971   262177689.933        5962.496          42.750  
G 1  22568555.554   118598561.124        6359.200          41.250  
R22  19641644.350   104848430.525        2165.005          52.500  
R 7  19819822.652   106097065.481        4421.250          51.500  
G11  21660961.557   113829124.456        6184.924          38.250  
> 2018  9 12 11 14 46.0000000  0 19                     
G32  23447970.170   123219912.725        5936.008          44.750  
G18  20571877.373   108105945.047        5360.898          50.000  
G 8  20374855.409   107070587.797        2997.593          53.250  
E26  23000625.196   120869100.978        1549.838          51.000  
G10  21451720.383   112729552.969        1495.947          48.000  
R 8  21912094.719   117338269.463        7629.495          48.250  
G27  21362166.021   112258938.475         808.518          50.000  
G22  24122013.799   126762048.780        6924.456          41.750  
R23  20512054.751   109725666.421        6123.997          39.000  
R21  23383534.361   125130022.022        -209.436          46.250  
G20  23314754.714   122519861.449         109.145          41.000  
G14  24573679.442   129135555.605        6512.992          38.500  
E 7  24979902.790   131270271.304        3362.334          50.000  
R 6  21491585.976   114683223.052         426.686          38.750  
E20  49889620.318   262171727.336        5962.539          42.750  
G 1  22567345.447   118592202.009        6358.879          41.000  
R22  19641238.800   104846265.653        2164.630          52.500  
R 7  19818996.772   106092644.577        4420.497          51.500  
G11  21659784.632   113822939.554        6184.676          38.000  
> 2018  9 12 11 14 47.0000000  0 19                     
G32  23446840.661   123213977.090        5935.496          44.750  
G18  20570857.292   108100584.528        5360.391          50.000  
G 8  20374285.067   107067590.627        2996.956          53.250  
E26  23000330.340   120867551.389        1549.551          51.000  
G10  21451435.798   112728057.382        1495.361          48.000  
R 8  21910670.052   117330640.306        7629.086          48.250  
G27  21362012.238   112258130.302         808.018          50.000  
G22  24120696.134   126755124.580        6924.363          41.750  
R23  20510909.874   109719542.692        6123.631          38.750  
R21  23383573.486   125130231.641        -209.649          46.000  
G20  23314733.969   122519752.512         108.744          40.750  
G14  24572440.074   129129042.583        6512.978          38.500  
E 7  24979263.043   131266909.372        3361.762          49.750  
R 6  21491506.053   114682796.691         426.147          39.000  
E20  49888485.739   262165765.137        5962.142          42.750  
G 1  22566135.394   118585843.206        6358.744          41.000  
R22  19640833.361   104844101.402        2164.073          52.500  
R 7  19818171.088   106088224.691        4419.535          51.500  
G11  21658607.767   113816755.071        6184.466          37.750  
> 2018  9 12 11 14 48.0000000  0 19                     
G32  23445711.253   123208041.998        5935.063          44.750  
G18  20569837.333   108095224.600        5359.802          50.000  
G 8  20373714.859   107064594.170        2996.271          53.250  
E26  23000035.550   120866002.146        1549.279          50.750  
G10  21451151.335   112726562.457        1494.828          48.000  
R 8  21909245.476   117323011.682        7628.606          48.000  
G27  21361858.558   112257322.692         807.495          50.000  
G22  24119378.539   126748200.694        6923.876          41.750  
R23  20509765.000   109713419.448        6123.193          38.500  
R21  23383612.678   125130441.577        -209.890          46.000  
G20  23314713.292   122519643.962         108.548          40.750  
G14  24571200.765   129122529.835        6512.812          38.000  
E 7  24978623.424   131263548.080        3361.206          50.000  
R 6  21491426.298   114682371.114         425.447          39.000  
E20  49887351.240   262159803.358        5961.780          42.750  
G 1  22564925.416   118579484.805        6358.439          41.000  
R22  19640428.045   104841937.831        2163.428          52.500  
R 7  19817345.610   106083805.873        4418.495          51.500  
G11  21657430.969   113810571.066        6184.016          37.750  
> 2018  9 12 11 14 49.0000000  0 19                     
G32  23444581.946   123202107.347        5934.543          44.750  
G18  20568817.472   108089865.159        5359.302          50.000  
G 8  20373144.772   107061598.343        2995.627          53.000  
E26  22999740.808   120864453.164        1548.945          51.250  
G10  21450866.969   112725068.092        1494.164          47.750  
R 8  21907820.954   117315383.464        7628.100          48.250  
G27  21361704.962   112256515.552         807.021          49.750  
G22  24118060.972   126741277.004        6923.712          41.750  
R23  20508620.161   109707296.562        6122.850          38.750  
R21  23383651.915   125130651.762        -210.117          46.000  
G20  23314692.675   122519535.712         108.227          40.750  
G14  24569961.501   129116017.260        6512.508          38.250  
E 7  24977983.916   131260187.343        3360.573          50.250  
R 6  21491346.683   114681946.219         424.774          39.000  
E20  49886216.804   262153841.902        5961.420          43.000  
G 1  22563715.494   118573126.698        6358.110          41.000  
R22  19640022.836   104839774.840        2162.832          52.500  
R 7  19816520.319   106079388.023        4417.469          51.500  
G11  21656254.254   113804387.429        6183.702          37.750  
> 2018  9 12 11 14 50.0000000  0 19                     
G32  23443452.713   123196173.073        5934.150          45.000  
G18  20567797.691   108084506.123        5358.845          50.000  
G 8  20372574.795   107058603.084        2994.970          53.250  
E26  22999446.099   120862904.370        1548.729          51.250  
G10  21450582.700   112723574.226        1493.578          47.750  
R 8  21906396.478   117307755.573        7627.761          48.250  
G27  21361551.443   112255708.821         806.501          49.750  
G22  24116743.454   126734353.478        6923.400          41.750  
R23  20507475.400   109701174.027        6122.248          38.750  
R21  23383691.189   125130862.112        -210.453          45.750  
G20  23314672.114   122519427.701         107.918          41.000  
G14  24568722.232   129109504.775        6512.543          38.500  
E 7  24977344.496   131256827.084        3359.991          50.250  
R 6  21491267.187   114681521.949         423.988          39.000  
E20  49885082.423   262147880.737        5961.021          43.000  
G 1  22562505.625   118566768.830        6357.752          41.000  
R22  19639617.721   104837612.363        2162.261          52.500  
R 7  19815695.197   106074971.067        4416.540          51.500  
G11  21655077.603   113798204.133        6183.104          37.750  
> 2018  9 12 11 14 51.0000000  0 19                     
G32  23442323.574   123190239.268        5933.443          45.000  
G18  20566778.000   108079147.585        5358.150          50.000  
G 8  20372004.941   107055608.459        2994.123          53.000  
E26  22999151.443   120861355.838        1548.253          51.000  
G10  21450298.540   112722080.925        1492.861          47.750  
R 8  21904972.060   117300128.124        7627.050          48.000  
G27  21361398.017   112254902.573         805.820          49.750  
G22  24115425.963   126727430.176        6923.053          41.750  
R23  20506330.699   109695051.872        6121.681          38.750  
R21  23383730.505   125131072.697        -210.854          45.500  
G20  23314651.618   122519320.018         107.336          40.500  
G14  24567482.982   129102992.488        6512.146          38.500  
E 7  24976705.180   131253467.372        3359.326          49.750  
R 6  21491187.821   114681098.368         423.049          39.000  
E20  49883948.107   262141919.923        5960.518          42.500  
G 1  22561295.813   118560411.264        6357.295          41.000  
R22  19639212.720   104835450.478        2161.403          52.500  
R 7  19814870.258   106070555.057        4415.393          51.500  
G11  21653900.985   113792021.207        6182.614          37.750  
> 2018  9 12 11 14 52.0000000  0 19                     
G32  23441194.522   123184305.963        5933.172          45.000  
G18  20565758.410   108073789.610        5357.824          50.000  
G 8  20371435.216   107052614.527        2993.701          53.250  
E26  22998856.835   120859807.617        1548.249          51.000  
G10  21450014.498   112720588.252        1492.529          47.750  
R 8  21903547.742   117292501.159        7626.858          48.000  
G27  21361244.697   112254096.853         805.615          50.000  
G22  24114108.533   126720507.148        6923.042          42.000  
R23  20505186.115   109688930.204        6121.528          38.500  
R21  23383769.881   125131283.561        -210.882          45.500  
G20  23314631.179   122519212.700         107.207          40.500  
G14  24566243.771   129096480.422        6512.255          38.000  
E 7  24976065.989   131250108.277        3358.930          49.750  
R 6  21491108.623   114680675.501         422.709          39.000  
E20  49882813.860   262135959.475        5960.325          42.250  
G 1  22560086.063   118554054.041        6357.153          40.750  
R22  19638807.836   104833289.233        2161.097          52.500  
R 7  19814045.505   106066140.042        4414.651          51.500  
G11  21652724.460   113785838.724        6182.390          37.750  
> 2018  9 12 11 14 53.0000000  0 19                     
G32  23440065.535   123178373.039        5932.620          45.000  
G18  20564738.895   108068432.054        5357.313          50.000  
G 8  20370865.602   107049621.163        2992.998          53.250  
E26  22998562.269   120858259.592        1547.826          51.250  
G10  21449730.548   112719096.079        1491.833          47.750  
R 8  21902123.471   117284874.531        7626.368          48.000  
G27  21361091.452   112253291.548         805.005          50.000  
G22  24112791.140   126713584.256        6922.777          42.000  
R23  20504041.608   109682808.808        6121.091          38.750  
R21  23383809.296   125131494.564        -211.135          45.500  
G20  23314610.780   122519105.591         106.907          40.500  
G14  24565004.569   129089968.480        6511.893          38.250  
E 7  24975426.883   131246749.654        3358.267          50.000  
R 6  21491029.548   114680253.255         421.957          39.000  
E20  49881679.664   262129999.311        5960.004          42.500  
G 1  22558876.346   118547697.060        6356.716          40.750  
R22  19638403.052   104831128.505        2160.370          52.500  
R 7  19813220.928   106061725.922        4413.542          51.750  
G11  21651547.996   113779656.556        6182.060          37.500  
> 2018  9 12 11 14 54.0000000  0 19                     
G32  23438936.609   123172440.494        5932.236          44.750  
G18  20563719.457   108063074.908        5356.868          50.000  
G 8  20370296.094   107046628.356        2992.420          53.250  
E26  22998267.729   120856711.747        1547.660          51.500  
G10  21449446.690   112717604.390        1491.299          47.750  
R 8  21900699.280   117277248.272        7626.006          48.000  
G27  21360938.279   112252486.631         804.654          50.000  
G22  24111473.763   126706661.517        6922.533          42.000  
R23  20502897.261   109676687.756        6120.990          39.000  
R21  23383848.758   125131705.732        -211.336          45.750  
G20  23314590.420   122518998.737         106.705          40.250  
G14  24563765.392   129083456.644        6511.618          38.500  
E 7  24974787.874   131243391.514        3357.873          50.250  
R 6  21490950.598   114679831.617         421.313          39.000  
E20  49880545.518   262124039.420        5959.783          42.750  
G 1  22557666.656   118541340.294        6356.519          41.000  
R22  19637998.358   104828968.283        2159.895          52.250  
R 7  19812396.522   106057312.723        4412.694          51.500  
G11  21650371.591   113773474.717        6181.470          37.250  
> 2018  9 12 11 14 55.0000000  0 19                     
G32  23437807.782   123166508.441        5931.874          45.000  
G18  20562700.120   108057718.295        5356.417          50.000  
G 8  20369726.719   107043636.234        2991.884          53.000  
E26  22997973.247   120855164.206        1547.457          51.500  
G10  21449162.946   112716113.317        1490.850          48.000  
R 8  21899275.167   117269622.505        7625.578          48.250  
G27  21360785.216   112251682.251         804.200          50.000  
G22  24110156.434   126699739.029        6922.500          42.000  
R23  20501753.079   109670567.144        6120.501          38.750  
R21  23383888.252   125131917.188        -211.546          45.500  
G20  23314570.131   122518892.237         106.474          40.500  
G14  24562526.250   129076945.004        6511.605          38.250  
E 7  24974148.978   131240033.972        3357.268          50.250  
R 6  21490871.774   114679410.710         420.509          39.000  
E20  49879411.449   262118079.912        5959.357          42.500  
G 1  22556457.022   118534983.855        6356.399          41.000  
R22  19637593.789   104826808.708        2159.355          52.500  
R 7  19811572.320   106052900.552        4411.756          51.500  
G11  21649195.289   113767293.278        6181.439          37.500  
> 2018  9 12 11 14 56.0000000  0 19                     
G32  23436679.023   123160576.722        5931.427          45.000  
G18  20561680.853   108052362.050        5356.038          50.000  
G 8  20369157.435   107040644.590        2991.363          53.000  
E26  22997678.791   120853616.791        1547.322          51.500  
G10  21448879.282   112714622.672        1490.546          48.000  
R 8  21897851.116   117261997.030        7625.229          48.250  
G27  21360632.217   112250878.212         803.827          50.000  
G22  24108839.131   126692816.637        6922.208          42.000  
R23  20500608.948   109664446.762        6120.300          38.750  
R21  23383927.752   125132128.726        -211.634          45.500  
G20  23314549.877   122518785.908         106.264          40.500  
G14  24561287.104   129070433.428        6511.328          38.250  
E 7  24973510.158   131236676.840        3356.907          50.000  
R 6  21490793.052   114678990.328         420.172          39.250  
E20  49878277.422   262112120.611        5959.071          42.250  
G 1  22555247.454   118528627.610        6356.130          41.000  
R22  19637189.304   104824649.588        2158.854          52.500  
R 7  19810748.275   106048489.196        4410.893          51.500  
G11  21648019.024   113761112.106        6181.065          37.250  
> 2018  9 12 11 14 57.0000000  0 19                     
G32  23435550.340   123154645.448        5931.359          45.000  
G18  20560661.682   108047006.306        5355.814          50.000  
G 8  20368588.274   107037653.582        2991.005          53.250  
E26  22997384.376   120852069.637        1547.387          51.750  
G10  21448595.739   112713132.611        1490.107          48.000  
R 8  21896427.137   117254371.947        7625.188          48.250  
G27  21360479.311   112250074.647         803.645          50.000  
G22  24107521.870   126685894.467        6922.363          42.000  
R23  20499464.909   109658326.800        6120.023          39.000  
R21  23383967.265   125132340.462        -211.423          45.500  
G20  23314529.682   122518679.890         106.145          40.750  
G14  24560047.996   129063922.025        6511.639          38.250  
E 7  24972871.444   131233320.266        3356.668          50.250  
R 6  21490714.470   114678570.648         419.665          39.250  
E20  49877143.465   262106161.654        5959.068          42.750  
G 1  22554037.952   118522271.668        6355.824          40.750  
R22  19636784.920   104822491.050        2158.544          52.500  
R 7  19809924.393   106044078.776        4410.271          51.500  
G11  21646842.841   113754931.331        6180.805          37.250  
> 2018  9 12 11 14 58.0000000  0 19                     
G32  23434421.730   123148714.577        5930.699          45.250  
G18  20559642.595   108041650.989        5355.054          50.250  
G 8  20368019.222   107034663.168        2990.067          53.250  
E26  22997090.008   120850522.700        1546.776          51.750  
G10  21448312.290   112711643.054        1489.208          48.000  
R 8  21895003.233   117246747.236        7624.508          48.000  
G27  21360326.492   112249271.524         802.896          50.250  
G22  24106204.646   126678972.465        6921.941          42.250  
R23  20498320.938   109652207.178        6119.445          39.500  
R21  23384006.809   125132552.386        -212.057          45.250  
G20  23314509.539   122518574.129         105.599          40.750  
G14  24558808.912   129057410.745        6511.186          38.250  
E 7  24972232.831   131229964.200        3355.803          50.250  
R 6  21490636.003   114678151.605         418.513          39.250  
E20  49876009.565   262100202.973        5958.472          42.500  
G 1  22552828.475   118515915.950        6355.567          41.250  
R22  19636380.634   104820333.048        2157.642          52.500  
R 7  19809100.661   106039669.269        4409.046          51.500  
G11  21645666.722   113748750.885        6180.261          37.500  
> 2018  9 12 11 14 59.0000000  0 19                     
G32  23433293.195   123142784.078        5930.248          45.250  
G18  20558623.595   108036296.092        5354.648          50.000  
G 8  20367450.267   107031673.308        2989.538          53.250  
E26  22996795.666   120848975.926        1546.646          51.500  
G10  21448028.944   112710153.983        1488.770          48.000  
R 8  21893579.405   117239122.847        7624.237          48.250  
G27  21360173.738   112248468.781         802.536          50.250  
G22  24104887.442   126672050.583        6921.812          42.250  
R23  20497177.079   109646087.819        6119.343          39.500  
R21  23384046.382   125132764.455        -212.225          45.000  
G20  23314489.447   122518468.579         105.416          40.750  
G14  24557569.861   129050899.560        6511.041          38.000  
E 7  24971594.303   131226608.588        3355.366          50.000  
R 6  21490557.652   114677733.159         418.027          39.250  
E20  49874875.709   262094244.555        5958.245          42.000  
G 1  22551619.050   118509560.456        6355.429          41.250  
R22  19635976.450   104818175.539        2157.247          52.500  
R 7  19808277.109   106035260.653        4408.151          51.750  
G11  21644490.642   113742570.722        6180.178          37.250  
> 2018  9 12 11 15  0.0000000  0 19                     
G32  23432164.715   123136853.896        5929.959          45.000  
G18  20557604.665   108030941.558        5354.429          50.000  
G 8  20366881.409   107028683.950        2989.111          53.250  
E26  22996501.340   120847429.284        1546.626          51.750  
G10  21447745.680   112708665.342        1488.396          48.000  
R 8  21892155.651   117231498.766        7623.968          48.250  
G27  21360021.048   112247666.391         802.228          50.250  
G22  24103570.256   126665128.791        6921.865          42.250  
R23  20496033.262   109639968.718        6118.951          39.750  
R21  23384085.998   125132976.662        -212.272          45.250  
G20  23314469.405   122518363.222         105.323          40.750  
G14  24556330.827   129044388.415        6511.185          38.250  
E 7  24970955.853   131223253.406        3355.016          50.250  
R 6  21490479.367   114677315.273         417.667          39.250  
E20  49873741.896   262088286.348        5958.132          42.500  
G 1  22550409.656   118503205.131        6355.104          41.000  
R22  19635572.359   104816018.486        2156.882          52.250  
R 7  19807453.703   106030852.895        4407.381          51.750  
G11  21643314.634   113736390.843        6179.721          37.250  
> 2018  9 12 11 15  1.0000000  0 19                     
G32  23431036.318   123130924.173        5929.373          45.250  
G18  20556585.833   108025587.533        5353.639          50.000  
G 8  20366312.663   107025695.224        2988.313          53.250  
E26  22996207.070   120845882.900        1546.158          51.750  
G10  21447462.516   112707177.263        1487.720          48.000  
R 8  21890731.980   117223875.110        7623.333          48.250  
G27  21359868.447   112246864.469         801.664          50.250  
G22  24102253.111   126658207.230        6921.346          42.250  
R23  20494889.612   109633850.011        6118.450          40.000  
R21  23384125.628   125133189.089        -212.795          45.500  
G20  23314449.438   122518258.165         104.837          40.750  
G14  24555091.832   129037877.474        6510.754          38.250  
E 7  24970317.512   131219898.764        3354.262          50.250  
R 6  21490401.184   114676898.087         416.693          39.250  
E20  49872608.148   262082328.467        5957.609          42.250  
G 1  22549200.329   118496850.105        6354.881          41.250  
R22  19635168.383   104813862.020        2156.043          52.500  
R 7  19806630.470   106026446.099        4406.221          51.750  
G11  21642138.691   113730211.327        6179.211          37.500  
> 2018  9 12 11 15  2.0000000  0 19                     
G32  23429908.022   123124995.001        5928.930          45.250  
G18  20555567.113   108020234.102        5353.201          50.000  
G 8  20365744.062   107022707.237        2987.654          53.250  
E26  22995912.868   120844336.887        1545.862          51.750  
G10  21447179.494   112705689.874        1487.100          48.000  
R 8  21889308.424   117216251.979        7622.852          48.250  
G27  21359715.958   112246063.132         801.057          50.250  
G22  24100936.031   126651285.996        6920.983          42.250  
R23  20493745.981   109627731.786        6118.079          40.500  
R21  23384165.332   125133401.842        -212.918          45.250  
G20  23314429.560   122518153.514         104.513          41.000  
G14  24553852.876   129031366.792        6510.625          38.500  
E 7  24969679.303   131216544.794        3353.615          50.000  
R 6  21490323.128   114676481.676         416.181          39.250  
E20  49871474.494   262076371.052        5957.154          42.000  
G 1  22547991.081   118490495.479        6354.354          41.000  
R22  19634764.545   104811706.245        2155.404          52.500  
R 7  19805807.423   106022040.346        4405.219          51.750  
G11  21640962.877   113724032.307        6178.904          37.250  
> 2018  9 12 11 15  3.0000000  0 19                     
G32  23428779.839   123119066.391        5928.412          45.250  
G18  20554548.502   108014881.250        5352.671          50.000  
G 8  20365175.602   107019719.976        2986.965          53.250  
E26  22995618.735   120842791.227        1545.564          51.750  
G10  21446896.592   112704203.140        1486.435          48.000  
R 8  21887884.954   117208629.344        7622.456          48.500  
G27  21359563.580   112245262.374         800.547          50.250  
G22  24099619.014   126644365.055        6920.892          42.250  
R23  20492602.468   109621614.049        6117.726          40.250  
R21  23384205.112   125133614.928        -213.275          45.250  
G20  23314409.766   122518049.273         104.108          40.750  
G14  24552613.977   129024856.420        6510.168          38.000  
E 7  24969041.209   131213191.469        3353.066          50.000  
R 6  21490245.222   114676066.056         415.355          39.250  
E20  49870340.925   262070414.062        5956.859          42.250  
G 1  22546781.908   118484141.259        6354.005          41.250  
R22  19634360.830   104809551.143        2154.824          52.250  
R 7  19804984.572   106017635.637        4404.245          51.500  
G11  21639787.146   113717853.773        6178.498          37.500  
> 2018  9 12 11 15  4.0000000  0 19                     
G32  23427651.736   123113138.140        5928.060          45.250  
G18  20553529.974   108009528.813        5352.265          50.000  
G 8  20364607.250   107016733.256        2986.511          53.250  
E26  22995324.638   120841245.736        1545.389          51.500  
G10  21446613.779   112702716.883        1486.005          48.250  
R 8  21886461.546   117201007.030        7622.167          48.250  
G27  21359411.271   112244461.996         800.231          50.250  
G22  24098302.030   126637444.260        6920.728          42.250  
R23  20491458.977   109615496.628        6117.347          40.500  
R21  23384244.940   125133828.148        -213.288          45.250  
G20  23314389.995   122517945.256         103.877          40.750  
G14  24551375.079   129018346.106        6510.245          38.000  
E 7  24968403.205   131209838.605        3352.628          49.750  
R 6  21490167.434   114675651.012         414.797          39.500  
E20  49869207.409   262064457.330        5956.608          41.750  
G 1  22545572.768   118477787.237        6354.018          41.000  
R22  19633957.198   104807396.537        2154.380          52.250  
R 7  19804161.891   106013231.797        4403.416          51.750  
G11  21638611.466   113711675.549        6178.099          37.500  
> 2018  9 12 11 15  5.0000000  0 19                     
G32  23426523.700   123107210.277        5927.578          45.000  
G18  20552511.527   108004176.813        5351.620          50.000  
G 8  20364039.017   107013747.114        2985.740          53.250  
E26  22995030.573   120839700.449        1545.065          51.750  
G10  21446331.069   112701231.134        1485.401          48.250  
R 8  21885038.193   117193385.106        7621.642          48.500  
G27  21359259.040   112243662.043         799.638          50.000  
G22  24096985.075   126630523.633        6920.398          42.250  
R23  20490315.567   109609379.556        6116.720          40.500  
R21  23384284.792   125134041.514        -213.712          45.000  
G20  23314370.249   122517841.474         103.584          40.750  
G14  24550136.202   129011835.916        6509.885          38.250  
E 7  24967765.289   131206486.235        3351.985          50.000  
R 6  21490089.805   114675236.630         413.960          39.250  
E20  49868073.950   262058500.867        5956.180          41.750  
G 1  22544363.660   118471433.451        6353.713          41.250  
R22  19633553.677   104805242.469        2153.660          52.250  
R 7  19803339.379   106008828.864        4402.385          51.750  
G11  21637435.843   113705497.633        6177.545          37.500  
> 2018  9 12 11 15  6.0000000  0 19                     
G32  23425395.779   123101283.022        5927.135          45.000  
G18  20551493.198   107998825.447        5351.250          50.000  
G 8  20363470.931   107010761.761        2985.179          53.250  
E26  22994736.583   120838155.566        1544.917          51.500  
G10  21446048.484   112699746.098        1484.934          48.250  
R 8  21883614.949   117185763.806        7621.207          48.250  
G27  21359106.929   112242862.714         799.162          50.000  
G22  24095668.188   126623603.360        6920.278          42.250  
R23  20489172.177   109603262.992        6116.582          40.000  
R21  23384324.676   125134255.240        -213.618          45.000  
G20  23314350.585   122517738.152         103.240          40.500  
G14  24548897.388   129005326.073        6509.693          38.500  
E 7  24967127.499   131203134.558        3351.509          50.000  
R 6  21490012.362   114674823.078         413.318          39.250  
E20  49866940.592   262052544.905        5955.977          42.000  
G 1  22543154.657   118465080.146        6353.284          41.250  
R22  19633150.287   104803089.141        2153.149          52.250  
R 7  19802517.071   106004427.069        4401.463          51.750  
G11  21636260.338   113699320.272        6177.108          37.500  
> 2018  9 12 11 15  7.0000000  0 19                     
G32  23424267.972   123095356.281        5926.663          45.000  
G18  20550474.968   107993474.622        5350.682          50.000  
G 8  20362902.987   107007777.113        2984.458          53.250  
E26  22994442.663   120836611.016        1544.529          52.000  
G10  21445766.019   112698261.701        1484.211          48.250  
R 8  21882191.799   117178142.998        7620.715          48.500  
G27  21358954.921   112242063.932         798.634          50.000  
G22  24094351.363   126616683.382        6920.042          42.500  
R23  20488028.865   109597146.932        6115.958          40.000  
R21  23384364.621   125134469.304        -214.171          45.000  
G20  23314330.992   122517635.213         102.876          40.500  
G14  24547658.650   128998816.437        6509.702          38.250  
E 7  24966489.824   131199783.498        3350.923          50.250  
R 6  21489935.062   114674410.292         412.754          39.250  
E20  49865807.318   262046589.361        5955.433          42.500  
G 1  22541945.713   118458727.187        6353.037          41.250  
R22  19632747.020   104800936.473        2152.486          52.250  
R 7  19801694.969   106000026.334        4400.392          52.000  
G11  21635084.898   113693143.336        6176.930          37.500  
> 2018  9 12 11 15  8.0000000  0 19                     
G32  23423140.209   123089429.768        5926.549          45.000  
G18  20549456.780   107988124.055        5350.503          50.000  
G 8  20362335.107   107004792.862        2984.053          53.250  
E26  22994148.742   120835066.485        1544.597          51.750  
G10  21445483.609   112696777.630        1483.945          48.500  
R 8  21880768.658   117170522.351        7620.599          48.250  
G27  21358802.958   112241265.385         798.454          50.000  
G22  24093034.545   126609763.391        6920.000          42.500  
R23  20486885.601   109591031.022        6115.850          40.000  
R21  23384404.574   125134683.363        -214.035          45.000  
G20  23314311.409   122517532.347         102.981          40.500  
G14  24546419.937   128992306.802        6509.560          38.500  
E 7  24965852.218   131196432.772        3350.624          50.250  
R 6  21489857.837   114673997.969         412.155          39.250  
E20  49864674.056   262040633.903        5955.493          42.500  
G 1  22540736.782   118452374.281        6352.893          41.500  
R22  19632343.827   104798784.155        2152.173          52.250  
R 7  19800873.012   105995626.327        4399.697          51.750  
G11  21633909.477   113686966.567        6176.805          37.500  
> 2018  9 12 11 15  9.0000000  0 19                     
G32  23422012.525   123083503.675        5925.809          45.000  
G18  20548438.680   107982773.971        5349.707          49.750  
G 8  20361767.332   107001809.214        2983.214          53.250  
E26  22993854.875   120833522.189        1543.997          51.750  
G10  21445201.312   112695294.103        1483.154          48.500  
R 8  21879345.619   117162902.076        7619.902          48.500  
G27  21358651.082   112240467.290         797.788          50.000  
G22  24091717.763   126602843.589        6919.629          42.250  
R23  20485742.302   109584915.462        6115.253          39.750  
R21  23384444.564   125134897.625        -214.491          44.750  
G20  23314291.871   122517429.753         102.330          40.500  
G14  24545181.246   128985797.282        6509.312          38.250  
E 7  24965214.700   131193082.555        3349.841          50.250  
R 6  21489780.716   114673586.263         411.309          39.250  
E20  49863540.853   262034678.785        5954.795          42.250  
G 1  22539527.916   118446021.657        6352.447          41.250  
R22  19631940.736   104796632.392        2151.357          52.250  
R 7  19800051.231   105991227.236        4398.519          51.750  
G11  21632734.124   113680790.163        6176.119          37.750  
> 2018  9 12 11 15 10.0000000  0 19                     
G32  23420884.921   123077578.031        5925.413          44.750  
G18  20547420.664   107977424.370        5349.383          49.750  
G 8  20361199.669   106998826.189        2982.688          53.250  
E26  22993561.050   120831978.135        1543.949          52.000  
G10  21444919.113   112693811.128        1482.646          48.500  
R 8  21877922.655   117155282.194        7619.588          48.250  
G27  21358499.300   112239669.665         797.398          50.000  
G22  24090401.015   126595924.003        6919.566          42.250  
R23  20484599.040   109578800.298        6114.950          39.750  
R21  23384484.624   125135112.090        -214.503          44.750  
G20  23314272.383   122517327.454         102.214          40.500  
G14  24543942.572   128979287.938        6509.339          38.500  
E 7  24964577.281   131189732.888        3349.333          50.500  
R 6  21489703.709   114673175.247         410.759          39.500  
E20  49862407.706   262028723.976        5954.731          42.500  
G 1  22538319.115   118439669.331        6352.217          41.250  
R22  19631537.754   104794481.208        2150.906          52.250  
R 7  19799229.636   105986829.084        4397.692          51.750  
G11  21631558.844   113674614.154        6175.818          37.750  
> 2018  9 12 11 15 11.0000000  0 19                     
G32  23419757.384   123071652.795        5924.860          44.750  
G18  20546402.736   107972075.233        5348.576          49.750  
G 8  20360632.124   106995843.772        2981.797          53.250  
E26  22993267.275   120830434.319        1543.436          52.250  
G10  21444637.016   112692328.687        1481.848          48.500  
R 8  21876499.768   117147662.712        7618.932          48.250  
G27  21358347.600   112238872.482         796.674          50.000  
G22  24089084.272   126589004.614        6918.984          42.250  
R23  20483455.834   109572685.468        6114.329          39.500  
R21  23384524.727   125135326.734        -215.121          45.000  
G20  23314252.968   122517225.441         101.573          40.750  
G14  24542703.907   128972778.755        6508.641          38.500  
E 7  24963939.964   131186383.734        3348.548          50.750  
R 6  21489626.834   114672764.865         409.766          39.250  
E20  49861274.609   262022769.471        5953.947          42.750  
G 1  22537110.369   118433317.264        6351.660          41.500  
R22  19631134.865   104792330.577        2150.072          52.500  
R 7  19798408.214   105982431.861        4396.475          51.750  
G11  21630383.640   113668438.468        6175.269          37.750  
> 2018  9 12 11 15 12.0000000  0 19                     
G32  23418629.947   123065728.014        5924.820          44.750  
G18  20545384.895   107966726.538        5348.749          49.750  
G 8  20360064.681   106992861.944        2981.854          53.250  
E26  22992973.541   120828890.723        1543.770          52.250  
G10  21444355.019   112690846.779        1481.899          48.500  
R 8  21875076.950   117140043.623        7619.288          48.250  
G27  21358195.987   112238075.730         796.841          50.000  
G22  24087767.553   126582085.401        6919.443          42.500  
R23  20482312.691   109566570.989        6114.639          39.000  
R21  23384564.857   125135541.582        -214.680          44.750  
G20  23314233.609   122517123.700         101.788          40.250  
G14  24541465.271   128966269.697        6509.376          38.250  
E 7  24963302.741   131183035.102        3348.670          50.750  
R 6  21489550.050   114672355.131         409.688          39.250  
E20  49860141.567   262016815.280        5954.357          42.750  
G 1  22535901.677   118426965.459        6352.087          41.250  
R22  19630732.097   104790180.492        2150.155          52.500  
R 7  19797586.963   105978035.559        4396.180          51.750  
G11  21629208.549   113662263.151        6175.434          37.750  
> 2018  9 12 11 15 13.0000000  0 19                     
G32  23417502.557   123059803.590        5924.306          45.000  
G18  20544367.146   107961378.310        5347.900          50.000  
G 8  20359497.351   106989880.700        2980.878          53.500  
E26  22992679.855   120827347.323        1543.255          51.750  
G10  21444073.111   112689365.371        1481.138          48.750  
R 8  21873654.200   117132424.934        7618.423          48.000  
G27  21358044.454   112237279.407         796.082          50.250  
G22  24086450.870   126575166.358        6918.856          42.500  
R23  20481169.573   109560456.810        6113.960          38.750  
R21  23384605.042   125135756.622        -215.058          45.000  
G20  23314214.314   122517022.178         101.356          40.750  
G14  24540226.648   128959760.778        6508.813          38.750  
E 7  24962665.610   131179686.953        3347.902          50.250  
R 6  21489473.360   114671945.998         408.659          39.500  
E20  49859008.579   262010861.358        5953.758          42.250  
G 1  22534693.037   118420613.898        6351.086          41.250  
R22  19630329.418   104788030.918        2149.282          52.500  
R 7  19796765.879   105973640.184        4394.891          51.750  
G11  21628033.502   113656088.149        6174.658          38.000  
> 2018  9 12 11 15 14.0000000  0 19                     
G32  23416375.276   123053879.753        5923.487          44.750  
G18  20543349.517   107956030.669        5347.272          49.750  
G 8  20358930.162   106986900.191        2980.013          53.500  
E26  22992386.237   120825804.297        1542.717          52.000  
G10  21443791.333   112687884.636        1480.295          48.750  
R 8  21872231.539   117124806.800        7617.754          48.000  
G27  21357893.029   112236483.667         795.306          50.250  
G22  24085134.243   126568247.625        6918.501          42.250  
R23  20480026.482   109554343.124        6113.448          38.500  
R21  23384645.296   125135971.996        -215.561          44.500  
G20  23314195.089   122516921.086         100.678          40.750  
G14  24538988.081   128953252.154        6508.350          38.500  
E 7  24962028.601   131176339.469        3347.069          50.500  
R 6  21489396.826   114671537.672         407.848          39.500  
E20  49857875.680   262004907.891        5953.142          42.500  
G 1  22533484.473   118414262.744        6350.816          41.250  
R22  19629926.873   104785882.043        2148.428          52.750  
R 7  19795944.994   105969245.906        4393.645          51.750  
G11  21626858.545   113649913.640        6174.188          37.750  
> 2018  9 12 11 15 15.0000000  0 19                     
G32  23415248.078   123047956.318        5923.153          44.750  
G18  20542331.980   107950683.461        5346.940          49.750  
G 8  20358363.094   106983920.286        2979.535          53.250  
E26  22992092.653   120824261.476        1542.636          52.000  
G10  21443509.652   112686404.421        1479.964          48.750  
R 8  21870808.938   117117189.045        7617.441          48.000  
G27  21357741.680   112235688.363         795.029          50.000  
G22  24083817.658   126561329.068        6918.384          42.250  
R23  20478883.498   109548229.795        6113.118          38.750  
R21  23384685.570   125136187.527        -215.801          44.500  
G20  23314175.912   122516820.252         100.609          40.500  
G14  24537749.569   128946743.675        6508.312          38.250  
E 7  24961391.685   131172992.490        3346.631          50.500  
R 6  21489320.421   114671129.993         407.326          39.500  
E20  49856742.835   261998954.741        5952.949          42.500  
G 1  22532275.970   118407911.850        6350.729          41.250  
R22  19629524.436   104783733.704        2148.043          52.750  
R 7  19795124.272   105964852.524        4392.849          51.750  
G11  21625683.644   113643739.496        6173.772          37.750  
> 2018  9 12 11 15 16.0000000  0 19                     
G32  23414120.993   123042033.453        5922.540          44.500  
G18  20541314.564   107945336.875        5346.304          49.750  
G 8  20357796.171   106980941.131        2978.767          53.250  
E26  22991799.144   120822719.037        1542.255          52.000  
G10  21443228.099   112684924.899        1479.120          48.750  
R 8  21869386.450   117109571.822        7616.941          48.000  
G27  21357590.447   112234893.652         794.395          50.000  
G22  24082501.141   126554410.857        6918.010          42.250  
R23  20477740.616   109542116.979        6112.560          38.750  
R21  23384725.914   125136403.410        -216.025          44.750  
G20  23314156.806   122516719.833         100.214          40.250  
G14  24536511.119   128940235.496        6508.094          38.500  
E 7  24960754.908   131169646.190        3345.937          50.500  
R 6  21489244.173   114670723.081         406.489          39.000  
E20  49855610.066   261993002.026        5952.466          42.500  
G 1  22531067.542   118401561.372        6350.275          41.500  
R22  19629122.140   104781586.085        2147.259          52.750  
R 7  19794303.754   105960460.218        4391.787          51.750  
G11  21624508.817   113637565.848        6173.391          38.000  
> 2018  9 12 11 15 17.0000000  0 19                     
G32  23412993.983   123036110.992        5922.029          44.500  
G18  20540297.230   107939990.733        5345.622          49.750  
G 8  20357229.365   106977962.567        2977.996          53.250  
E26  22991505.670   120821176.798        1541.840          51.750  
G10  21442946.644   112683445.884        1478.518          49.000  
R 8  21867964.037   117101954.949        7616.427          48.000  
G27  21357439.288   112234099.353         793.830          50.000  
G22  24081184.642   126547492.822        6917.616          42.250  
R23  20476597.853   109536004.492        6112.141          39.000  
R21  23384766.292   125136619.466        -216.335          45.000  
G20  23314137.754   122516619.679          99.754          40.250  
G14  24535272.675   128933727.436        6507.793          38.500  
E 7  24960118.214   131166300.380        3345.273          50.250  
R 6  21489168.057   114670316.834         405.628          39.250  
E20  49854477.353   261987049.615        5951.998          42.250  
G 1  22529859.146   118395211.126        6349.871          41.500  
R22  19628719.941   104779438.993        2146.522          52.750  
R 7  19793483.406   105956068.817        4390.666          51.750  
G11  21623334.053   113631392.513        6172.988          38.000  
> 2018  9 12 11 15 18.0000000  0 19                     
G32  23411867.073   123030188.997        5921.848          44.500  
G18  20539279.993   107934645.114        5345.427          49.750  
G 8  20356662.686   106974984.665        2977.644          53.250  
E26  22991212.248   120819634.837        1541.901          51.500  
G10  21442665.303   112681967.443        1478.210          48.750  
R 8  21866541.695   117094338.495        7616.290          48.000  
G27  21357288.224   112233305.554         793.659          50.000  
G22  24079868.176   126540574.997        6917.705          42.250  
R23  20475455.156   109529892.403        6112.024          39.250  
R21  23384806.749   125136835.779        -216.355          45.000  
G20  23314118.756   122516519.846          99.740          40.250  
G14  24534034.253   128927219.578        6507.777          38.500  
E 7  24959481.629   131162955.134        3345.076          50.250  
R 6  21489092.058   114669911.292         405.277          39.000  
E20  49853344.707   261981097.554        5951.944          42.000  
G 1  22528650.840   118388861.220        6349.754          41.500  
R22  19628317.857   104777292.500        2146.262          52.500  
R 7  19792663.246   105951678.392        4389.996          51.750  
G11  21622159.385   113625219.616        6172.729          38.250  
> 2018  9 12 11 15 19.0000000  0 19                     
G32  23410740.192   123024267.287        5921.354          44.750  
G18  20538262.821   107929299.803        5344.906          49.750  
G 8  20356096.092   106972007.226        2976.946          53.250  
E26  22990918.842   120818092.971        1541.594          51.750  
G10  21442384.035   112680489.404        1477.568          48.750  
R 8  21865119.414   117086722.283        7615.825          48.000  
G27  21357137.220   112232512.060         793.128          50.000  
G22  24078551.742   126533657.253        6917.341          42.250  
R23  20474312.552   109523780.552        6111.481          39.500  
R21  23384847.224   125137052.142        -216.648          44.750  
G20  23314099.790   122516420.142          99.426          40.000  
G14  24532795.808   128920711.709        6507.661          38.750  
E 7  24958845.120   131159610.278        3344.455          50.500  
R 6  21489016.152   114669506.231         404.671          39.000  
E20  49852212.094   261975145.668        5951.464          42.500  
G 1  22527442.535   118382511.425        6349.549          41.500  
R22  19627915.843   104775146.420        2145.630          52.500  
R 7  19791843.238   105947288.776        4388.936          52.000  
G11  21620984.769   113619046.915        6172.369          38.000  
> 2018  9 12 11 15 20.0000000  0 19                     
G32  23409613.411   123018346.053        5920.896          44.500  
G18  20537245.744   107923954.997        5344.552          49.750  
G 8  20355529.621   106969030.422        2976.490          53.250  
E26  22990625.493   120816551.377        1541.402          51.750  
G10  21442102.876   112679011.947        1477.136          48.750  
R 8  21863697.212   117079106.497        7615.542          48.000  
G27  21356986.308   112231719.048         792.705          50.000  
G22  24077235.373   126526739.716        6917.510          42.250  
R23  20473170.058   109517669.064        6111.372          40.000  
R21  23384887.766   125137268.767        -216.749          45.000  
G20  23314080.879   122516320.747          99.191          40.000  
G14  24531557.401   128914204.045        6507.599          38.750  
E 7  24958208.713   131156265.974        3343.976          50.500  
R 6  21488940.364   114669101.907         403.891          38.750  
E20  49851079.549   261969194.130        5951.373          42.500  
G 1  22526234.281   118376161.944        6349.214          41.250  
R22  19627513.927   104773000.929        2145.159          52.500  
R 7  19791023.408   105942900.119        4388.111          52.000  
G11  21619810.230   113612874.615        6172.068          38.000  
> 2018  9 12 11 15 21.0000000  0 19                     
G32  23408486.700   123012425.261        5920.555          44.500  
G18  20536228.768   107918610.680        5343.981          49.750  
G 8  20354963.259   106966054.242        2975.812          53.250  
E26  22990332.188   120815010.033        1541.196          51.750  
G10  21441821.827   112677535.048        1476.472          48.750  
R 8  21862275.094   117071491.165        7615.067          48.000  
G27  21356835.486   112230926.514         792.299          50.000  
G22  24075919.070   126519822.420        6916.976          42.250  
R23  20472027.698   109511557.965        6110.815          40.250  
R21  23384928.316   125137485.587        -216.936          44.750  
G20  23314062.010   122516221.658          98.912          40.000  
G14  24530319.023   128907696.551        6507.395          38.500  
E 7  24957572.408   131152922.225        3343.389          50.500  
R 6  21488864.694   114668698.252         403.504          38.500  
E20  49849947.072   261963242.945        5950.945          42.000  
G 1  22525026.073   118369812.758        6349.048          41.500  
R22  19627112.109   104770856.011        2144.574          52.500  
R 7  19790203.763   105938512.428        4387.167          52.000  
G11  21618635.743   113606702.690        6171.750          38.000  
> 2018  9 12 11 15 22.0000000  0 19                     
G32  23407360.073   123006504.813        5920.373          44.500  
G18  20535211.866   107913266.736        5343.916          49.750  
G 8  20354396.997   106963078.583        2975.581          53.250  
E26  22990038.907   120813468.832        1541.343          51.750  
G10  21441540.858   112676058.588        1476.370          49.000  
R 8  21860853.039   117063876.168        7614.977          48.000  
G27  21356684.736   112230134.343         792.184          50.000  
G22  24074602.803   126512905.215        6917.273          42.500  
R23  20470885.491   109505447.150        6110.804          40.500  
R21  23384968.869   125137702.479        -216.692          44.750  
G20  23314043.180   122516122.765          99.023          40.000  
G14  24529080.646   128901189.132        6507.391          38.500  
E 7  24956936.183   131149578.905        3343.322          50.500  
R 6  21488789.142   114668295.161         403.031          38.250  
E20  49848814.640   261957291.965        5950.990          42.250  
G 1  22523817.895   118363463.753        6349.012          41.500  
R22  19626710.384   104768711.575        2144.389          52.500  
R 7  19789384.277   105934125.575        4386.605          52.250  
G11  21617461.308   113600531.064        6171.606          38.250  
> 2018  9 12 11 15 23.0000000  0 19                     
G32  23406233.503   123000584.669        5919.858          44.500  
G18  20534195.035   107907923.153        5343.203          49.750  
G 8  20353830.827   106960103.410        2974.693          53.250  
E26  22989745.647   120811927.749        1540.823          51.500  
G10  21441259.973   112674582.551        1475.582          49.000  
R 8  21859431.040   117056261.469        7614.308          48.000  
G27  21356534.047   112229342.504         791.458          50.000  
G22  24073286.561   126505988.089        6916.935          42.250  
R23  20469743.386   109499336.586        6110.206          40.500  
R21  23385009.445   125137919.501        -217.374          44.750  
G20  23314024.387   122516024.030          98.345          40.250  
G14  24527842.285   128894681.740        6507.206          38.500  
E 7  24956300.042   131146236.001        3342.452          50.250  
R 6  21488713.703   114667892.626         401.894          38.250  
E20  49847682.251   261951341.186        5950.499          42.000  
G 1  22522609.765   118357114.918        6348.600          41.750  
R22  19626308.727   104766567.577        2143.562          52.500  
R 7  19788564.966   105929739.568        4385.366          52.250  
G11  21616286.915   113594359.642        6171.128          38.500  
> 2018  9 12 11 15 24.0000000  0 19                     
G32  23405107.017   122994664.915        5919.497          44.500  
G18  20533178.279   107902579.982        5342.765          49.750  
G 8  20353264.768   106957128.810        2974.212          53.250  
E26  22989452.427   120810386.861        1540.652          51.000  
G10  21440979.181   112673107.014        1475.239          49.000  
R 8  21858009.114   117048647.126        7614.038          48.000  
G27  21356383.441   112228551.063         791.080          50.000  
G22  24071970.347   126499071.122        6916.798          42.250  
R23  20468601.370   109493226.357        6109.958          40.750  
R21  23385050.017   125138136.700        -217.391          44.750  
G20  23314005.648   122515925.535          98.227          40.250  
G14  24526603.951   128888174.465        6506.982          38.500  
E 7  24955663.991   131142893.575        3342.079          50.000  
R 6  21488638.376   114667490.680         401.340          38.250  
E20  49846549.918   261945390.695        5950.294          41.500  
G 1  22521401.663   118350766.285        6348.533          41.500  
R22  19625907.153   104764424.097        2143.092          52.500  
R 7  19787745.806   105925354.439        4384.593          52.000  
G11  21615112.579   113588188.585        6170.671          38.250  
> 2018  9 12 11 15 25.0000000  0 19                     
G32  23403980.633   122988745.672        5919.141          44.250  
G18  20532161.623   107897237.370        5342.382          49.500  
G 8  20352698.838   106954154.888        2973.598          53.250  
E26  22989159.258   120808846.275        1540.450          51.250  
G10  21440698.508   112671632.101        1474.574          49.000  
R 8  21856587.265   117041033.244        7613.663          48.000  
G27  21356232.934   112227760.146         790.693          50.000  
G22  24070654.171   126492154.430        6916.418          42.250  
R23  20467459.449   109487116.556        6109.656          40.750  
R21  23385090.602   125138354.144        -217.574          44.250  
G20  23313986.985   122515827.375          98.083          40.250  
G14  24525365.665   128881667.387        6507.126          38.500  
E 7  24955028.052   131139551.749        3341.510          50.000  
R 6  21488563.206   114667089.481         400.882          38.500  
E20  49845417.660   261939440.589        5950.005          41.500  
G 1  22520193.627   118344418.031        6348.142          41.250  
R22  19625505.694   104762281.251        2142.546          52.500  
R 7  19786926.852   105920970.350        4383.666          52.000  
G11  21613938.340   113582017.917        6170.491          38.250  
> 2018  9 12 11 15 26.0000000  0 19                     
G32  23402854.310   122982826.765        5918.729          44.500  
G18  20531145.038   107891895.141        5342.046          49.500  
G 8  20352133.005   106951181.471        2973.179          53.250  
E26  22988866.119   120807305.836        1540.371          51.250  
G10  21440417.913   112670157.623        1474.298          49.000  
R 8  21855165.466   117033419.644        7613.400          48.250  
G27  21356082.500   112226969.600         790.334          50.000  
G22  24069338.012   126485237.831        6916.436          42.500  
R23  20466317.576   109481007.055        6109.394          40.750  
R21  23385131.212   125138571.699        -217.590          44.000  
G20  23313968.361   122515729.431          97.957          40.000  
G14  24524127.402   128875160.415        6506.738          38.500  
E 7  24954392.201   131136210.361        3341.136          50.250  
R 6  21488488.110   114666688.837         400.260          38.250  
E20  49844285.446   261933490.718        5949.792          41.750  
G 1  22518985.615   118338069.958        6348.021          41.500  
R22  19625104.323   104760138.870        2142.157          52.500  
R 7  19786108.055   105916587.120        4382.841          52.000  
G11  21612764.172   113575847.553        6170.212          38.500  
> 2018  9 12 11 15 27.0000000  0 19                     
G32  23401728.061   122976908.305        5918.224          44.250  
G18  20530128.544   107886553.409        5341.431          49.500  
G 8  20351567.291   106948208.676        2972.355          53.250  
E26  22988573.025   120805765.648        1539.963          51.500  
G10  21440137.429   112668683.717        1473.462          49.000  
R 8  21853743.735   117025806.453        7612.906          48.250  
G27  21355932.158   112226179.523         789.785          50.250  
G22  24068021.883   126478321.459        6916.102          42.250  
R23  20465175.754   109474897.949        6108.937          41.000  
R21  23385171.843   125138789.479        -218.012          43.750  
G20  23313949.797   122515631.786          97.345          40.250  
G14  24522889.190   128868653.616        6506.468          38.500  
E 7  24953756.456   131132869.518        3340.490          50.500  
R 6  21488413.110   114666288.866         399.481          38.000  
E20  49843153.294   261927541.178        5949.273          41.750  
G 1  22517777.646   118331722.177        6347.420          41.500  
R22  19624703.066   104757997.078        2141.398          52.500  
R 7  19785289.443   105912204.846        4381.672          52.000  
G11  21611590.068   113569677.570        6169.665          38.500  
> 2018  9 12 11 15 28.0000000  0 19                     
G32  23400601.930   122970990.399        5917.831          44.500  
G18  20529112.158   107881212.228        5341.038          49.500  
G 8  20351001.705   106945236.589        2971.818          53.250  
E26  22988280.004   120804225.804        1539.790          51.250  
G10  21439857.070   112667210.444        1472.990          48.750  
R 8  21852322.097   117018193.792        7612.540          48.250  
G27  21355781.923   112225390.001         789.382          50.250  
G22  24066705.812   126471405.379        6916.040          42.500  
R23  20464033.995   109468789.323        6108.541          41.250  
R21  23385212.514   125139007.570        -218.192          44.250  
G20  23313931.305   122515534.514          97.285          40.250  
G14  24521651.038   128862147.053        6506.565          39.000  
E 7  24953120.830   131129529.313        3340.011          50.250  
R 6  21488338.226   114665889.622         399.097          38.000  
E20  49842021.213   261921592.067        5948.892          41.750  
G 1  22516569.745   118325374.780        6347.195          41.500  
R22  19624301.940   104755855.953        2140.926          52.250  
R 7  19784471.025   105907823.598        4380.841          52.000  
G11  21610416.029   113563508.062        6169.235          38.500  
> 2018  9 12 11 15 29.0000000  0 19                     
G32  23399475.872   122965072.893        5917.256          44.500  
G18  20528095.860   107875871.507        5340.465          49.500  
G 8  20350436.243   106942265.103        2971.139          53.250  
E26  22987987.021   120802686.177        1539.468          51.250  
G10  21439576.812   112665737.694        1472.472          48.750  
R 8  21850900.543   117010581.528        7611.960          48.250  
G27  21355631.769   112224600.919         788.803          50.250  
G22  24065389.774   126464489.486        6915.806          42.500  
R23  20462892.286   109462681.032        6108.088          41.250  
R21  23385253.226   125139225.851        -218.413          44.250  
G20  23313912.855   122515437.499          96.843          40.500  
G14  24520412.918   128855640.641        6506.229          38.750  
E 7  24952485.292   131126189.602        3339.437          50.250  
R 6  21488263.472   114665491.035         398.060          38.000  
E20  49840889.185   261915643.250        5948.675          41.750  
G 1  22515361.869   118319027.625        6346.901          41.500  
R22  19623900.919   104753715.373        2140.235          52.500  
R 7  19783652.764   105903443.241        4379.877          51.750  
G11  21609242.048   113557338.877        6168.979          38.500  
> 2018  9 12 11 15 30.0000000  0 19                     
G32  23398349.901   122959155.825        5916.780          44.500  
G18  20527079.650   107870531.269        5339.986          49.500  
G 8  20349870.896   106939294.242        2970.590          53.250  
E26  22987694.084   120801146.782        1539.276          51.500  
G10  21439296.663   112664265.497        1471.881          48.750  
R 8  21849479.068   117002969.670        7611.718          48.250  
G27  21355481.699   112223812.274         788.434          50.250  
G22  24064073.774   126457573.784        6915.602          42.250  
R23  20461750.615   109456573.099        6107.702          41.250  
R21  23385293.981   125139444.323        -218.706          44.000  
G20  23313894.459   122515340.775          96.552          40.500  
G14  24519174.839   128849134.364        6506.312          38.750  
E 7  24951849.866   131122850.431        3338.953          50.500  
R 6  21488188.829   114665093.077         397.526          38.000  
E20  49839757.216   261909694.757        5948.295          41.750  
G 1  22514154.054   118312680.753        6346.566          41.500  
R22  19623500.004   104751575.358        2139.718          52.250  
R 7  19782834.678   105899063.817        4378.984          51.750  
G11  21608068.143   113551170.073        6168.684          38.250  
> 2018  9 12 11 15 31.0000000  0 19                     
G32  23397223.995   122953239.138        5916.466          44.500  
G18  20526063.518   107865191.456        5339.572          49.500  
G 8  20349305.666   106936323.935        2969.948          53.250  
E26  22987401.181   120799607.569        1539.056          51.750  
G10  21439016.597   112662793.780        1471.418          48.500  
R 8  21848057.685   116995358.185        7611.223          48.500  
G27  21355331.708   112223024.049         787.976          50.250  
G22  24062757.801   126450658.227        6915.476          42.250  
R23  20460608.990   109450465.445        6107.498          41.250  
R21  23385334.747   125139662.914        -218.733          43.750  
G20  23313876.109   122515244.260          96.366          40.750  
G14  24517936.780   128842628.237        6506.145          38.750  
E 7  24951214.530   131119511.742        3338.379          50.750  
R 6  21488114.292   114664695.722         396.989          38.250  
E20  49838625.299   261903746.543        5948.045          42.000  
G 1  22512946.290   118306334.105        6346.505          41.500  
R22  19623099.204   104749435.861        2139.165          52.250  
R 7  19782016.750   105894685.312        4378.055          51.750  
G11  21606894.278   113545001.559        6168.356          38.750  
> 2018  9 12 11 15 32.0000000  0 19                     
G32  23396098.165   122947322.857        5915.934          44.500  
G18  20525047.480   107859852.094        5339.004          49.500  
G 8  20348740.548   106933354.218        2969.274          53.250  
E26  22987108.321   120798068.583        1538.734          51.500  
G10  21438736.634   112661322.598        1470.768          48.500  
R 8  21846636.372   116987747.081        7610.733          48.500  
G27  21355181.799   112222236.259         787.428          50.250  
G22  24061441.859   126443742.876        6915.081          42.250  
R23  20459467.393   109444358.175        6106.914          41.500  
R21  23385375.574   125139881.738        -219.084          43.750  
G20  23313857.826   122515148.024          95.934          40.750  
G14  24516698.748   128836122.236        6505.695          38.500  
E 7  24950579.284   131116173.556        3337.828          50.500  
R 6  21488039.878   114664299.040         396.206          38.250  
E20  49837493.439   261897798.616        5947.596          42.000  
G 1  22511738.589   118299987.730        6346.051          41.500  
R22  19622698.512   104747296.915        2138.538          52.250  
R 7  19781198.982   105890307.758        4376.952          51.750  
G11  21605720.486   113538833.424        6167.864          38.500  
> 2018  9 12 11 15 33.0000000  0 19                     
G32  23394972.450   122941407.076        5915.252          44.750  
G18  20524031.542   107854513.262        5338.274          49.500  
G 8  20348175.560   106930385.171        2968.445          53.250  
E26  22986815.514   120796529.888        1538.279          51.500  
G10  21438456.782   112659852.003        1470.088          48.500  
R 8  21845215.158   116980136.407        7610.183          48.500  
G27  21355031.986   112221448.972         786.783          50.500  
G22  24060125.952   126436827.748        6914.867          42.500  
R23  20458325.835   109438251.317        6106.265          41.250  
R21  23385416.432   125140100.836        -219.480          44.250  
G20  23313839.617   122515052.127          95.410          40.750  
G14  24515460.739   128829616.452        6505.228          38.500  
E 7  24949944.153   131112835.962        3337.030          50.500  
R 6  21487965.607   114663903.068         395.437          38.000  
E20  49836361.655   261891851.073        5947.059          41.750  
G 1  22510530.960   118293641.685        6345.649          41.500  
R22  19622297.931   104745158.592        2137.738          52.250  
R 7  19780381.387   105885931.209        4375.794          51.750  
G11  21604546.748   113532665.700        6167.339          38.500  
> 2018  9 12 11 15 34.0000000  0 19                     
G32  23393846.814   122935491.697        5915.537          45.000  
G18  20523015.689   107849174.880        5338.460          49.250  
G 8  20347610.690   106927416.719        2968.436          53.250  
E26  22986522.747   120794991.400        1538.633          51.750  
G10  21438177.038   112658381.939        1470.045          48.500  
R 8  21843794.003   116972526.080        7610.501          48.500  
G27  21354882.250   112220662.114         786.878          50.250  
G22  24058810.087   126429912.804        6915.144          42.500  
R23  20457184.326   109432144.804        6106.698          41.500  
R21  23385457.333   125140320.091        -219.035          44.250  
G20  23313821.467   122514956.473          95.796          40.500  
G14  24514222.742   128823110.785        6505.975          38.250  
E 7  24949309.111   131109498.867        3337.132          50.750  
R 6  21487891.512   114663507.765         395.260          38.000  
E20  49835229.928   261885903.829        5947.321          42.250  
G 1  22509323.381   118287295.881        6346.100          41.750  
R22  19621897.457   104743020.803        2137.832          52.250  
R 7  19779563.967   105881555.556        4375.518          51.500  
G11  21603373.063   113526498.311        6167.536          38.750  
> 2018  9 12 11 15 35.0000000  0 19                     
G32  23392721.229   122929576.610        5914.862          45.000  
G18  20521999.896   107843836.809        5337.920          49.250  
G 8  20347045.905   106924448.716        2967.797          53.250  
E26  22986230.001   120793453.003        1538.362          51.500  
G10  21437897.360   112656912.252        1469.466          48.500  
R 8  21842372.910   116964916.001        7609.953          48.500  
G27  21354732.565   112219875.547         786.438          50.500  
G22  24057494.244   126422997.920        6914.931          42.500  
R23  20456042.833   109426038.508        6106.049          41.250  
R21  23385498.245   125140539.362        -219.210          43.750  
G20  23313803.348   122514860.979          95.413          40.750  
G14  24512984.737   128816605.143        6505.629          38.500  
E 7  24948674.142   131106162.152        3336.529          50.750  
R 6  21487817.526   114663112.967         394.564          38.500  
E20  49834098.234   261879956.732        5946.938          42.250  
G 1  22508115.862   118280950.229        6345.577          41.750  
R22  19621497.054   104740883.418        2137.189          52.000  
R 7  19778746.676   105877180.677        4374.498          51.750  
G11  21602199.451   113520331.136        6167.276          38.750  
> 2018  9 12 11 15 36.0000000  0 19                     
G32  23391595.731   122923661.936        5914.459          45.000  
G18  20520984.182   107838499.170        5337.239          49.250  
G 8  20346481.238   106921481.322        2966.963          53.250  
E26  22985937.291   120791914.813        1538.014          51.500  
G10  21437617.780   112655443.085        1468.807          48.500  
R 8  21840951.883   116957306.330        7609.326          48.750  
G27  21354582.960   112219089.416         785.845          50.500  
G22  24056178.432   126416083.210        6914.552          42.250  
R23  20454901.414   109419932.545        6105.742          40.750  
R21  23385539.206   125140758.822        -219.653          43.500  
G20  23313785.267   122514765.720          95.039          40.500  
G14  24511746.755   128810099.647        6505.325          38.500  
E 7  24948039.268   131102825.940        3335.841          51.000  
R 6  21487743.668   114662718.827         393.644          38.250  
E20  49832966.600   261874009.944        5946.571          42.000  
G 1  22506908.404   118274604.819        6345.278          41.750  
R22  19621096.749   104738746.566        2136.433          52.000  
R 7  19777929.556   105872806.713        4373.383          51.500  
G11  21601025.912   113514164.332        6166.516          38.750  
> 2018  9 12 11 15 37.0000000  0 19                     
G32  23390470.324   122917747.754        5914.042          45.000  
G18  20519968.567   107833162.068        5336.793          49.250  
G 8  20345916.703   106918514.612        2966.395          53.250  
E26  22985644.648   120790376.924        1537.792          51.750  
G10  21437338.311   112653974.515        1468.418          48.250  
R 8  21839530.958   116949697.140        7608.963          48.750  
G27  21354433.461   112218303.788         785.425          50.500  
G22  24054862.667   126409168.738        6914.498          42.500  
R23  20453760.027   109413827.024        6105.318          40.500  
R21  23385580.207   125140978.576        -219.848          43.750  
G20  23313767.244   122514670.805          94.815          40.500  
G14  24510508.805   128803594.330        6505.483          38.750  
E 7  24947404.507   131099490.323        3335.319          51.000  
R 6  21487669.944   114662325.384         393.198          38.500  
E20  49831835.037   261868063.542        5946.153          42.250  
G 1  22505701.020   118268259.756        6344.888          42.000  
R22  19620696.560   104736610.339        2135.903          52.000  
R 7  19777112.607   105868433.770        4372.407          51.500  
G11  21599852.467   113507997.913        6166.259          39.000  
> 2018  9 12 11 15 38.0000000  0 19                     
G32  23389345.018   122911834.140        5913.297          45.000  
G18  20518953.068   107827825.583        5336.113          49.250  
G 8  20345352.304   106915548.644        2965.495          53.250  
E26  22985352.074   120788839.408        1537.232          51.500  
G10  21437058.980   112652506.635        1467.501          48.500  
R 8  21838110.133   116942088.537        7608.269          48.750  
G27  21354284.069   112217518.764         784.623          50.500  
G22  24053546.965   126402254.636        6913.960          42.500  
R23  20452618.676   109407721.991        6104.706          40.000  
R21  23385621.321   125141198.682        -220.349          43.500  
G20  23313749.284   122514576.316          94.171          40.750  
G14  24509270.904   128797089.331        6504.904          38.250  
E 7  24946769.875   131096155.366        3334.506          50.750  
R 6  21487596.374   114661932.742         392.124          38.000  
E20  49830703.558   261862117.583        5945.602          42.250  
G 1  22504493.708   118261915.093        6344.405          41.750  
R22  19620296.499   104734474.812        2135.082          52.000  
R 7  19776295.862   105864061.916        4371.283          51.750  
G11  21598679.137   113501832.009        6165.559          38.750  
> 2018  9 12 11 15 39.0000000  0 19                     
G32  23388219.802   122905920.964        5913.012          45.000  
G18  20517937.656   107822489.552        5335.799          49.250  
G 8  20344788.020   106912583.280        2965.085          53.250  
E26  22985059.549   120787302.122        1537.136          51.500  
G10  21436779.745   112651039.278        1467.137          48.500  
R 8  21836689.378   116934480.325        7608.027          48.750  
G27  21354134.763   112216734.178         784.326          50.500  
G22  24052231.301   126395340.717        6913.776          42.500  
R23  20451477.319   109401617.339        6104.349          40.000  
R21  23385662.442   125141418.972        -220.271          43.750  
G20  23313731.360   122514482.080          94.116          40.750  
G14  24508033.062   128790584.491        6504.804          38.500  
E 7  24946135.328   131092820.916        3334.221          50.750  
R 6  21487522.924   114661540.739         391.600          38.000  
E20  49829572.141   261856171.941        5945.491          42.250  
G 1  22503286.462   118255570.708        6344.249          41.500  
R22  19619896.546   104732339.858        2134.638          52.000  
R 7  19775479.293   105859690.993        4370.482          51.750  
G11  21597505.879   113495666.465        6165.375          38.750  
> 2018  9 12 11 15 40.0000000  0 19                     
G32  23387094.639   122900008.064        5912.785          45.250  
G18  20516922.308   107817153.847        5335.583          49.500  
G 8  20344223.821   106909618.374        2964.705          53.250  
E26  22984767.035   120785764.922        1537.197          51.500  
G10  21436500.585   112649572.316        1466.844          48.500  
R 8  21835268.681   116926872.374        7607.813          48.750  
G27  21353985.516   112215949.895         784.219          50.500  
G22  24050915.637   126388426.845        6913.765          42.500  
R23  20450336.012   109395512.897        6104.307          40.000  
R21  23385703.563   125141639.314        -220.323          43.500  
G20  23313713.454   122514387.999          94.080          41.000  
G14  24506795.208   128784079.665        6504.827          38.500  
E 7  24945500.874   131089486.867        3333.925          51.000  
R 6  21487449.538   114661149.225         391.246          37.750  
E20  49828440.759   261850226.480        5945.283          42.250  
G 1  22502079.241   118249226.450        6344.193          41.750  
R22  19619496.662   104730205.324        2134.377          52.250  
R 7  19774662.882   105855320.854        4369.817          51.750  
G11  21596332.682   113489501.154        6165.307          38.750  
> 2018  9 12 11 15 41.0000000  0 19                     
G32  23385969.519   122894095.480        5912.395          45.000  
G18  20515907.020   107811818.490        5335.124          49.500  
G 8  20343659.707   106906653.931        2964.157          53.250  
E26  22984474.541   120784227.831        1536.993          51.500  
G10  21436221.502   112648105.766        1466.414          48.500  
R 8  21833848.034   116919264.679        7607.584          48.750  
G27  21353836.336   112215165.936         783.774          50.250  
G22  24049599.986   126381513.033        6913.800          42.500  
R23  20449194.702   109389408.682        6104.041          40.250  
R21  23385744.748   125141859.740        -220.516          43.500  
G20  23313695.570   122514294.054          93.880          40.750  
G14  24505557.356   128777574.859        6504.737          38.500  
E 7  24944866.487   131086153.212        3333.432          51.000  
R 6  21487376.250   114660758.218         390.716          37.750  
E20  49827309.407   261844281.185        5945.132          42.500  
G 1  22500872.040   118242882.335        6343.931          41.750  
R22  19619096.852   104728071.217        2133.886          52.250  
R 7  19773846.630   105850951.530        4368.899          51.750  
G11  21595159.543   113483336.068        6164.851          38.750  
> 2018  9 12 11 15 42.0000000  0 19                     
G32  23384844.482   122888183.344        5911.907          45.250  
G18  20514891.827   107806483.654        5334.416          49.500  
G 8  20343095.716   106903690.155        2963.281          53.250  
E26  22984182.103   120782691.016        1536.494          51.250  
G10  21435942.536   112646639.795        1465.487          48.250  
R 8  21832427.474   116911657.434        7606.843          48.750  
G27  21353687.244   112214382.473         782.992          50.500  
G22  24048284.386   126374599.460        6913.167          42.750  
R23  20448053.550   109383304.894        6103.404          40.750  
R21  23385785.950   125142080.382        -221.017          43.250  
G20  23313677.749   122514200.441          93.272          40.750  
G14  24504319.536   128771070.240        6504.453          38.250  
E 7  24944232.213   131082820.123        3332.639          51.000  
R 6  21487303.090   114660367.917         389.607          38.000  
E20  49826178.127   261838336.280        5944.621          42.250  
G 1  22499664.892   118236538.531        6343.438          42.000  
R22  19618697.158   104725937.710        2133.006          52.250  
R 7  19773030.566   105846583.196        4367.679          51.750  
G11  21593986.467   113477171.374        6164.215          39.000  
> 2018  9 12 11 15 43.0000000  0 19                     
G32  23383719.550   122882271.762        5911.334          45.250  
G18  20513876.746   107801149.386        5334.012          49.500  
G 8  20342531.855   106900727.095        2962.691          53.000  
E26  22983889.727   120781154.529        1536.317          51.250  
G10  21435663.700   112645174.470        1465.010          48.250  
R 8  21831006.993   116904050.681        7606.439          48.750  
G27  21353538.255   112213599.542         782.694          50.250  
G22  24046968.846   126367686.192        6913.219          42.750  
R23  20446912.542   109377201.581        6103.130          41.000  
R21  23385827.199   125142301.332        -221.145          43.000  
G20  23313659.981   122514107.199          93.005          40.750  
G14  24503081.784   128764565.911        6504.027          38.500  
E 7  24943598.055   131079487.664        3332.138          50.750  
R 6  21487230.067   114659978.385         389.110          38.000  
E20  49825046.927   261832391.797        5944.258          42.000  
G 1  22498457.817   118230195.108        6343.211          42.000  
R22  19618297.590   104723804.848        2132.528          52.250  
R 7  19772214.706   105842215.909        4366.710          51.750  
G11  21592813.484   113471007.155        6163.948          38.500  
> 2018  9 12 11 15 44.0000000  0 19                     
G32  23382594.694   122876360.637        5911.043          45.250  
G18  20512861.758   107795815.609        5333.694          49.500  
G 8  20341968.116   106897764.674        2962.333          53.250  
E26  22983597.398   120779618.300        1536.290          51.250  
G10  21435384.970   112643709.692        1464.816          48.250  
R 8  21829586.568   116896444.344        7606.338          48.750  
G27  21353389.360   112212817.098         782.417          50.250  
G22  24045653.355   126360773.139        6913.155          42.500  
R23  20445771.697   109371098.644        6102.956          41.250  
R21  23385868.470   125142522.517        -220.997          42.750  
G20  23313642.268   122514014.265          92.922          40.750  
G14  24501844.063   128758061.738        6504.254          38.500  
E 7  24942963.997   131076155.750        3331.829          50.750  
R 6  21487157.152   114659589.517         388.788          38.000  
E20  49823915.786   261826447.639        5944.234          42.250  
G 1  22497250.799   118223851.987        6343.234          41.750  
R22  19617898.127   104721672.562        2132.237          52.250  
R 7  19771399.031   105837849.562        4366.112          51.750  
G11  21591640.561   113464843.310        6163.936          38.250  
> 2018  9 12 11 15 45.0000000  0 19                     
G32  23381469.918   122870449.958        5910.485          45.250  
G18  20511846.865   107790482.311        5333.101          49.500  
G 8  20341404.491   106894802.879        2961.524          53.250  
E26  22983305.122   120778082.333        1535.891          51.000  
G10  21435106.348   112642245.493        1464.027          48.250  
R 8  21828166.230   116888838.428        7605.763          48.750  
G27  21353240.559   112212035.128         781.759          50.250  
G22  24044337.911   126353860.323        6912.767          42.500  
R23  20444630.922   109364996.131        6102.417          41.500  
R21  23385909.816   125142743.948        -221.448          42.500  
G20  23313624.620   122513921.619          92.480          40.750  
G14  24500606.380   128751557.719        6503.943          38.250  
E 7  24942330.045   131072824.388        3331.140          50.500  
R 6  21487084.349   114659201.331         387.963          38.000  
E20  49822784.708   261820503.827        5943.739          42.000  
G 1  22496043.820   118217509.168        6342.631          41.750  
R22  19617498.777   104719540.857        2131.431          52.250  
R 7  19770583.543   105833484.188        4364.965          52.000  
G11  21590467.694   113458679.876        6163.278          38.250  
> 2018  9 12 11 15 46.0000000  0 19                     
G32  23380345.212   122864539.587        5910.164          45.000  
G18  20510832.050   107785149.384        5332.674          49.500  
G 8  20340840.961   106891841.552        2961.037          53.000  
E26  22983012.871   120776546.481        1535.717          50.750  
G10  21434827.798   112640781.703        1463.448          48.250  
R 8  21826745.941   116881232.787        7605.426          48.750  
G27  21353091.819   112211253.488         781.336          50.250  
G22  24043022.484   126346947.552        6912.737          42.250  
R23  20443490.213   109358893.822        6102.144          41.500  
R21  23385951.158   125142965.439        -221.576          42.250  
G20  23313606.986   122513829.134          92.360          41.000  
G14  24499368.720   128745053.801        6503.980          38.250  
E 7  24941696.163   131069493.428        3330.711          50.500  
R 6  21487011.660   114658813.666         387.401          38.000  
E20  49821653.663   261814560.214        5943.423          41.750  
G 1  22494836.854   118211166.491        6342.681          42.000  
R22  19617099.501   104717409.572        2131.000          52.250  
R 7  19769768.224   105829119.638        4364.082          52.250  
G11  21589294.857   113452516.655        6163.156          38.000  
> 2018  9 12 11 15 47.0000000  0 19                     
G32  23379220.590   122858629.612        5909.963          45.000  
G18  20509817.320   107779816.880        5332.507          49.750  
G 8  20340277.544   106888880.801        2960.629          53.250  
E26  22982720.651   120775010.816        1535.749          50.750  
G10  21434549.346   112639318.407        1463.225          48.250  
R 8  21825325.721   116873627.521        7605.276          48.750  
G27  21352943.148   112210472.248         781.211          50.250  
G22  24041707.097   126340034.961        6912.755          42.250  
R23  20442349.647   109352791.849        6102.071          41.250  
R21  23385992.520   125143187.073        -221.565          42.500  
G20  23313589.399   122513736.906          92.277          41.000  
G14  24498131.085   128738549.978        6504.044          38.250  
E 7  24941062.394   131066162.970        3330.319          50.500  
R 6  21486939.088   114658426.632         386.794          38.000  
E20  49820522.665   261808616.870        5943.388          41.750  
G 1  22493629.922   118204824.069        6342.543          41.750  
R22  19616700.330   104715278.820        2130.674          52.250  
R 7  19768953.068   105824755.998        4363.363          52.000  
G11  21588122.083   113446353.797        6162.780          38.000  
> 2018  9 12 11 15 48.0000000  0 19                     
G32  23378096.074   122852720.185        5909.272          45.000  
G18  20508802.705   107774484.947        5331.786          49.500  
G 8  20339714.269   106885920.771        2959.813          53.000  
E26  22982428.501   120773475.500        1535.264          51.250  
G10  21434271.022   112637855.761        1462.420          48.250  
R 8  21823905.583   116866022.771        7604.612          48.500  
G27  21352794.585   112209691.576         780.492          50.250  
G22  24040391.770   126333122.693        6912.130          42.500  
R23  20441209.189   109346690.332        6101.404          40.750  
R21  23386033.957   125143409.051        -222.080          42.250  
G20  23313571.897   122513645.057          91.813          41.000  
G14  24496893.517   128732046.438        6503.466          38.500  
E 7  24940428.729   131062833.130        3329.631          51.000  
R 6  21486866.673   114658040.368         386.148          38.000  
E20  49819391.755   261802673.956        5942.733          42.250  
G 1  22492423.063   118198482.029        6341.937          41.750  
R22  19616301.293   104713148.742        2129.847          52.500  
R 7  19768138.118   105820393.405        4362.150          52.000  
G11  21586949.401   113440191.388        6162.165          38.000  
> 2018  9 12 11 15 49.0000000  0 19                     
G32  23376971.641   122846811.183        5908.922          45.000  
G18  20507788.183   107769153.499        5331.376          49.500  
G 8  20339151.116   106882961.353        2959.291          53.000  
E26  22982136.398   120771940.412        1535.113          51.250  
G10  21433992.809   112636393.652        1462.030          48.250  
R 8  21822485.521   116858418.439        7604.295          48.750  
G27  21352646.109   112208911.347         780.147          50.250  
G22  24039076.467   126326210.594        6912.108          42.500  
R23  20440068.805   109340589.159        6101.219          40.500  
R21  23386075.458   125143631.229        -222.110          41.750  
G20  23313554.466   122513553.487          91.526          41.000  
G14  24495655.964   128725543.025        6503.363          38.250  
E 7  24939795.169   131059503.814        3329.266          51.000  
R 6  21486794.390   114657654.772         385.381          38.000  
E20  49818260.907   261796731.353        5942.644          42.250  
G 1  22491216.241   118192140.252        6341.752          41.500  
R22  19615902.364   104711019.228        2129.420          52.500  
R 7  19767323.338   105816031.745        4361.374          52.000  
G11  21585776.779   113434029.323        6162.100          37.750  
> 2018  9 12 11 15 50.0000000  0 19                     
G32  23375847.271   122840902.543        5908.458          45.250  
G18  20506773.732   107763822.422        5330.862          49.500  
G 8  20338588.064   106880002.484        2958.587          52.750  
E26  22981844.325   120770405.484        1534.838          51.000  
G10  21433714.693   112634932.016        1461.314          48.000  
R 8  21821065.501   116850814.432        7603.828          48.500  
G27  21352497.706   112208131.498         779.666          50.250  
G22  24037761.184   126319298.621        6911.961          42.250  
R23  20438928.445   109334488.278        6100.742          40.500  
R21  23386116.999   125143853.507        -222.284          41.500  
G20  23313537.080   122513462.104          91.325          41.000  
G14  24494418.412   128719039.720        6503.243          38.250  
E 7  24939161.702   131056174.960        3328.612          50.750  
R 6  21486722.228   114657269.761         384.660          37.750  
E20  49817130.112   261790789.003        5942.225          42.000  
G 1  22490009.472   118185798.687        6341.354          41.250  
R22  19615503.528   104708890.208        2128.780          52.500  
R 7  19766508.719   105811670.943        4360.386          52.000  
G11  21584604.187   113427867.573        6161.583          37.750  
> 2018  9 12 11 15 51.0000000  0 19                     
G32  23374722.972   122834994.259        5907.952          45.500  
G18  20505759.351   107758491.768        5330.235          49.500  
G 8  20338025.112   106877044.135        2957.887          53.000  
E26  22981552.286   120768870.714        1534.550          51.000  
G10  21433436.663   112633470.828        1460.723          48.250  
R 8  21819645.524   116843210.761        7603.284          48.750  
G27  21352349.370   112207352.017         779.152          50.250  
G22  24036445.911   126312386.763        6911.721          42.500  
R23  20437788.113   109328387.709        6100.284          40.500  
R21  23386158.587   125144075.919        -222.692          41.750  
G20  23313519.743   122513370.948          90.837          41.250  
G14  24493180.858   128712536.472        6502.998          38.250  
E 7  24938528.317   131052846.549        3327.992          50.750  
R 6  21486650.169   114656885.319         384.087          37.750  
E20  49815999.360   261784846.891        5941.856          42.250  
G 1  22488802.735   118179457.325        6340.909          41.250  
R22  19615104.796   104706761.677        2128.070          52.500  
R 7  19765694.262   105807310.972        4359.335          52.250  
G11  21583431.651   113421706.104        6161.026          37.750  
> 2018  9 12 11 15 52.0000000  0 19                     
G32  23373598.769   122829086.439        5907.386          45.250  
G18  20504745.055   107753161.617        5329.714          49.500  
G 8  20337462.277   106874086.413        2957.260          53.000  
E26  22981260.298   120767336.204        1534.198          51.000  
G10  21433158.737   112632010.205        1460.180          48.250  
R 8  21818225.635   116835607.524        7602.876          48.500  
G27  21352201.123   112206573.010         778.596          50.250  
G22  24035130.670   126305475.158        6911.252          42.500  
R23  20436647.778   109322287.520        6099.835          40.500  
R21  23386200.195   125144298.562        -222.767          41.750  
G20  23313502.467   122513280.081          90.595          41.000  
G14  24491943.355   128706033.434        6502.973          38.250  
E 7  24937895.045   131049518.694        3327.384          51.000  
R 6  21486578.237   114656501.580         383.076          37.500  
E20  49814868.676   261778905.139        5941.423          42.250  
G 1  22487596.058   118173116.255        6340.834          41.500  
R22  19614706.161   104704633.720        2127.501          52.500  
R 7  19764879.971   105802951.981        4358.324          52.250  
G11  21582259.180   113415545.025        6160.704          37.750  
> 2018  9 12 11 15 53.0000000  0 19                     
G32  23372474.654   122823179.131        5906.847          45.250  
G18  20503730.854   107747832.013        5329.114          49.500  
G 8  20336899.573   106871129.397        2956.466          53.000  
E26  22980968.371   120765802.018        1533.768          51.250  
G10  21432880.935   112630550.206        1459.496          48.250  
R 8  21816805.839   116828004.766        7602.330          48.500  
G27  21352052.980   112205794.537         778.060          50.000  
G22  24033815.478   126298563.821        6910.954          42.500  
R23  20435507.456   109316187.802        6099.114          40.500  
R21  23386241.858   125144521.495        -223.325          41.500  
G20  23313485.258   122513189.582          90.118          40.750  
G14  24490705.932   128699530.638        6502.547          38.500  
E 7  24937261.882   131046191.447        3326.720          51.000  
R 6  21486506.419   114656118.562         382.377          37.500  
E20  49813738.063   261772963.777        5940.970          42.500  
G 1  22486389.435   118166775.550        6340.267          41.500  
R22  19614307.657   104702506.423        2126.730          52.500  
R 7  19764065.888   105798594.051        4357.205          52.250  
G11  21581086.813   113409384.407        6160.139          37.750  
> 2018  9 12 11 15 54.0000000  0 19                     
G32  23371350.614   122817272.158        5906.771          45.000  
G18  20502716.717   107742502.755        5329.000          49.500  
G 8  20336336.956   106868172.872        2956.188          53.000  
E26  22980676.464   120764267.948        1533.870          51.000  
G10  21432603.221   112629090.643        1459.226          48.250  
R 8  21815386.087   116820402.278        7602.256          48.500  
G27  21351904.901   112205016.414         777.860          50.250  
G22  24032500.281   126291652.562        6911.132          42.750  
R23  20434367.152   109310088.339        6099.306          40.500  
R21  23386283.511   125144744.489        -223.168          41.500  
G20  23313468.078   122513099.258          90.050          40.750  
G14  24489468.518   128693027.889        6502.679          38.250  
E 7  24936628.808   131042864.621        3326.497          50.750  
R 6  21486434.690   114655736.091         382.080          37.250  
E20  49812607.493   261767022.629        5940.924          42.000  
G 1  22485182.841   118160435.013        6340.389          41.500  
R22  19613909.233   104700379.564        2126.498          52.500  
R 7  19763251.967   105794236.957        4356.561          52.250  
G11  21579914.504   113403224.040        6160.142          37.500  
> 2018  9 12 11 15 55.0000000  0 19                     
G32  23370226.660   122811365.637        5906.317          45.000  
G18  20501702.670   107737173.996        5328.493          49.750  
G 8  20335774.465   106865216.975        2955.587          53.000  
E26  22980384.612   120762734.133        1533.715          50.750  
G10  21432325.603   112627631.626        1458.723          48.000  
R 8  21813966.435   116812800.219        7601.892          48.750  
G27  21351756.912   112204238.747         777.513          50.250  
G22  24031185.127   126284741.525        6910.950          42.500  
R23  20433226.828   109303989.265        6098.874          40.750  
R21  23386325.197   125144967.691        -223.132          41.250  
G20  23313450.933   122513009.214          89.880          40.750  
G14  24488231.149   128686525.301        6502.569          38.750  
E 7  24935995.835   131039538.331        3326.059          50.500  
R 6  21486363.086   114655354.261         381.452          37.250  
E20  49811476.990   261761081.815        5940.660          41.500  
G 1  22483976.314   118154094.782        6339.999          41.500  
R22  19613510.920   104698253.281        2126.029          52.500  
R 7  19762438.213   105789880.799        4355.708          52.250  
G11  21578742.256   113397064.036        6159.852          37.500  
> 2018  9 12 11 15 56.0000000  0 19                     
G32  23369102.802   122805459.685        5905.513          45.000  
G18  20500688.737   107731845.852        5327.774          49.500  
G 8  20335212.112   106862261.823        2954.694          53.250  
E26  22980092.830   120761200.700        1533.174          50.750  
G10  21432048.109   112626173.292        1457.892          48.000  
R 8  21812546.890   116805198.722        7601.113          48.750  
G27  21351609.042   112203461.687         776.656          50.000  
G22  24029870.057   126277830.841        6910.450          42.500  
R23  20432086.670   109297890.723        6098.111          40.750  
R21  23386366.945   125145191.275        -223.878          41.250  
G20  23313433.850   122512919.599          89.323          40.750  
G14  24486993.816   128680023.024        6502.074          38.500  
E 7  24935362.999   131036212.721        3325.195          50.500  
R 6  21486291.649   114654973.220         380.529          37.500  
E20  49810346.581   261755141.468        5940.025          41.500  
G 1  22482769.874   118147754.951        6339.566          41.250  
R22  19613112.741   104696127.719        2125.135          52.500  
R 7  19761624.669   105785525.725        4354.438          52.250  
G11  21577570.110   113390904.575        6159.176          37.500  
> 2018  9 12 11 15 57.0000000  0 19                     
G32  23367979.021   122799554.143        5905.568          45.000  
G18  20499674.891   107726518.132        5327.644          49.500  
G 8  20334649.876   106859307.275        2954.475          53.250  
E26  22979801.098   120759667.484        1533.328          50.500  
G10  21431770.708   112624715.471        1457.820          48.250  
R 8  21811127.428   116797597.644        7601.096          48.750  
G27  21351461.250   112202685.043         776.670          50.000  
G22  24028555.023   126270920.315        6910.730          42.750  
R23  20430946.514   109291792.504        6098.184          40.500  
R21  23386408.690   125145415.029        -223.645          40.750  
G20  23313416.804   122512830.228          89.421          40.750  
G14  24485756.518   128673520.890        6502.208          38.500  
E 7  24934730.246   131032887.606        3325.041          50.250  
R 6  21486220.348   114654592.828         380.274          37.500  
E20  49809216.233   261749201.427        5940.131          41.500  
G 1  22481563.493   118141415.377        6339.602          41.250  
R22  19612714.656   104694002.689        2124.965          52.500  
R 7  19760811.298   105781171.580        4353.913          52.250  
G11  21576398.027   113384745.428        6159.336          37.500  
> 2018  9 12 11 15 58.0000000  0 19                     
G32  23366855.312   122793648.995        5904.941          45.000  
G18  20498661.134   107721190.850        5327.007          49.750  
G 8  20334087.753   106856353.291        2953.683          53.250  
E26  22979509.395   120758134.439        1532.922          50.500  
G10  21431493.397   112623258.143        1457.104          48.250  
R 8  21809708.034   116789996.934        7600.496          48.500  
G27  21351313.540   112201908.801         776.022          50.000  
G22  24027240.026   126264009.950        6910.290          42.500  
R23  20429806.525   109285694.609        6097.688          40.500  
R21  23386450.515   125145638.980        -224.105          41.000  
G20  23313399.802   122512741.088          89.075          40.750  
G14  24484519.244   128667018.852        6501.865          38.250  
E 7  24934097.597   131029562.972        3324.349          50.500  
R 6  21486149.156   114654212.989         379.552          37.750  
E20  49808085.933   261743261.641        5939.593          41.750  
G 1  22480357.164   118135076.025        6339.263          41.250  
R22  19612316.658   104691878.173        2124.208          52.500  
R 7  19759998.080   105776818.323        4352.819          52.250  
G11  21575226.044   113378586.616        6158.601          37.500  
> 2018  9 12 11 15 59.0000000  0 19                     
G32  23365731.666   122787744.251        5904.414          45.250  
G18  20497647.467   107715864.030        5326.525          50.000  
G 8  20333525.742   106853399.882        2953.049          53.250  
E26  22979217.734   120756601.616        1532.665          50.750  
G10  21431216.175   112621801.331        1456.557          48.250  
R 8  21808288.713   116782396.593        7600.108          48.500  
G27  21351165.918   112201132.993         775.496          50.250  
G22  24025925.062   126257099.767        6909.973          42.750  
R23  20428666.592   109279597.039        6097.278          40.250  
R21  23386492.374   125145863.075        -224.276          41.250  
G20  23313382.863   122512652.216          88.692          41.000  
G14  24483281.971   128660516.945        6501.925          38.500  
E 7  24933465.043   131026238.846        3323.811          50.250  
R 6  21486078.099   114653833.824         378.878          37.500  
E20  49806955.689   261737322.151        5939.239          41.500  
G 1  22479150.883   118128736.934        6338.880          41.500  
R22  19611918.753   104689754.194        2123.636          52.250  
R 7  19759185.033   105772466.005        4351.741          52.250  
G11  21574054.110   113372428.137        6158.340          37.500  
> 2018  9 12 11 16  0.0000000  0 19                     
G32  23364608.086   122781839.835        5904.318          45.250  
G18  20496633.872   107710537.570        5326.310          50.000  
G 8  20332963.821   106850446.967        2952.692          53.250  
E26  22978926.082   120755068.903        1532.766          50.750  
G10  21430939.042   112620344.939        1456.205          48.250  
R 8  21806869.457   116774796.528        7599.989          49.000  
G27  21351018.352   112200357.512         775.358          50.250  
G22  24024610.113   126250189.663        6910.159          42.750  
R23  20427526.728   109273499.733        6097.157          40.000  
R21  23386534.237   125146087.229        -224.137          41.500  
G20  23313365.961   122512563.495          88.615          41.000  
G14  24482044.719   128654015.125        6501.861          38.750  
E 7  24932832.558   131022915.127        3323.620          50.250  
R 6  21486007.192   114653455.179         378.441          37.500  
E20  49805825.491   261731382.866        5939.290          41.500  
G 1  22477944.658   118122398.022        6338.818          41.500  
R22  19611520.934   104687630.658        2123.314          52.250  
R 7  19758372.144   105768114.509        4351.119          52.250  
G11  21572882.205   113366269.905        6158.095          37.500  
> 2018  9 12 11 16  1.0000000  0 19                     
G32  23363484.598   122775935.880        5903.751          45.250  
G18  20495620.375   107705211.621        5325.783          50.000  
G 8  20332402.029   106847494.699        2952.000          53.250  
E26  22978634.485   120753536.460        1532.379          50.750  
G10  21430662.012   112618889.120        1455.542          48.500  
R 8  21805450.280   116767196.892        7599.479          48.750  
G27  21350870.876   112199582.509         774.855          50.250  
G22  24023295.220   126243279.788        6909.809          42.750  
R23  20426386.935   109267402.799        6096.757          40.000  
R21  23386576.183   125146311.641        -224.328          41.500  
G20  23313349.120   122512475.081          88.282          41.000  
G14  24480807.510   128647513.472        6501.492          39.000  
E 7  24932200.182   131019591.966        3322.914          50.250  
R 6  21485936.435   114653077.227         377.690          37.500  
E20  49804695.363   261725443.936        5938.985          41.500  
G 1  22476738.457   118116059.391        6338.502          41.500  
R22  19611123.228   104685507.698        2122.734          52.250  
R 7  19757559.428   105763763.970        4350.091          52.250  
G11  21571710.403   113360112.082        6157.699          37.750  
> 2018  9 12 11 16  2.0000000  0 19                     
G32  23362361.179   122770032.272        5903.552          45.250  
G18  20494606.952   107699886.045        5325.325          50.000  
G 8  20331840.332   106844542.962        2951.425          53.000  
E26  22978342.910   120752004.173        1532.151          51.000  
G10  21430385.076   112617433.758        1455.052          48.500  
R 8  21804031.165   116759597.568        7599.144          48.750  
G27  21350723.469   112198807.879         774.407          50.250  
G22  24021980.337   126236370.024        6909.711          42.750  
R23  20425247.287   109261306.154        6096.605          40.000  
R21  23386618.154   125146536.186        -224.618          41.500  
G20  23313332.335   122512386.867          88.083          41.000  
G14  24479570.325   128641011.891        6501.409          38.750  
E 7  24931567.888   131016269.254        3322.407          50.500  
R 6  21485865.779   114652699.856         377.052          37.500  
E20  49803565.285   261719505.255        5938.506          41.750  
G 1  22475532.293   118109720.967        6338.321          41.500  
R22  19610725.605   104683385.211        2122.246          52.250  
R 7  19756746.860   105759414.265        4349.271          52.500  
G11  21570538.660   113353954.522        6157.497          37.750  
> 2018  9 12 11 16  3.0000000  0 19                     
G32  23361237.872   122764129.227        5902.952          45.500  
G18  20493593.644   107694561.061        5324.801          50.000  
G 8  20331278.772   106841591.947        2950.778          53.250  
E26  22978051.398   120750472.231        1531.940          50.750  
G10  21430108.263   112615979.040        1454.433          48.500  
R 8  21802612.152   116751998.791        7598.676          49.000  
G27  21350576.161   112198033.803         773.928          50.250  
G22  24020665.508   126229460.578        6909.410          43.000  
R23  20424107.700   109255210.007        6096.011          40.250  
R21  23386660.184   125146761.032        -224.822          41.750  
G20  23313315.632   122512299.042          87.746          41.250  
G14  24478333.183   128634510.591        6501.335          39.000  
E 7  24930935.714   131012947.177        3321.868          50.250  
R 6  21485795.227   114652323.240         376.207          37.750  
E20  49802435.295   261713567.000        5938.213          41.500  
G 1  22474326.208   118103382.937        6337.831          41.500  
R22  19610328.100   104681263.396        2121.608          52.250  
R 7  19755934.495   105755065.617        4348.230          52.250  
G11  21569367.045   113347797.462        6156.940          38.000  
> 2018  9 12 11 16  4.0000000  0 19                     
G32  23360114.639   122758226.589        5902.250          45.500  
G18  20492580.418   107689236.522        5324.114          50.000  
G 8  20330717.322   106838641.534        2949.921          53.250  
E26  22977759.930   120748940.511        1531.412          51.000  
G10  21429831.555   112614524.841        1453.712          48.500  
R 8  21801193.222   116744400.407        7598.009          49.000  
G27  21350428.944   112197260.180         773.133          50.250  
G22  24019350.713   126222551.302        6909.149          43.000  
R23  20422968.152   109249114.198        6095.519          40.000  
R21  23386702.249   125146986.043        -225.348          42.000  
G20  23313298.971   122512211.480          87.258          41.500  
G14  24477096.058   128628009.430        6500.783          39.000  
E 7  24930303.644   131009625.612        3321.105          50.500  
R 6  21485724.787   114651947.256         375.613          37.250  
E20  49801305.359   261707629.059        5937.446          41.750  
G 1  22473120.157   118097045.147        6337.450          41.500  
R22  19609930.699   104679142.128        2120.769          52.250  
R 7  19755122.312   105750717.912        4346.982          52.250  
G11  21568195.503   113341640.737        6156.277          38.000  
> 2018  9 12 11 16  5.0000000  0 19                     
G32  23358991.479   122752324.338        5902.145          45.500  
G18  20491567.270   107683912.406        5323.986          50.000  
G 8  20330155.975   106835691.669        2949.655          53.000  
E26  22977468.492   120747408.967        1531.588          50.750  
G10  21429554.931   112613071.129        1453.550          48.500  
R 8  21799774.343   116736802.361        7597.923          49.250  
G27  21350281.800   112196486.933         773.159          50.250  
G22  24018035.964   126215642.203        6909.075          42.750  
R23  20421828.659   109243018.742        6095.445          40.000  
R21  23386744.353   125147211.209        -225.239          42.250  
G20  23313282.359   122512124.140          87.274          41.250  
G14  24475858.950   128621508.390        6501.108          38.750  
E 7  24929671.662   131006304.522        3320.963          50.250  
R 6  21485654.443   114651571.903         375.112          37.250  
E20  49800175.470   261701691.373        5937.627          41.750  
G 1  22471914.170   118090707.608        6337.450          41.250  
R22  19609533.397   104677021.376        2120.569          52.250  
R 7  19754310.283   105746371.119        4346.401          52.250  
G11  21567024.041   113335484.319        6156.470          38.000  
> 2018  9 12 11 16  6.0000000  0 19                     
G32  23357868.404   122746422.484        5901.679          45.500  
G18  20490554.193   107678588.702        5323.447          50.000  
G 8  20329594.739   106832742.383        2948.899          53.000  
E26  22977177.082   120745877.620        1531.170          50.750  
G10  21429278.402   112611617.923        1452.881          48.500  
R 8  21798355.548   116729204.692        7597.405          49.250  
G27  21350134.741   112195714.105         772.554          50.250  
G22  24016721.251   126208733.251        6908.689          43.000  
R23  20420689.241   109236923.620        6094.960          39.750  
R21  23386786.489   125147436.555        -225.484          42.250  
G20  23313265.787   122512037.046          86.854          41.250  
G14  24474621.869   128615007.470        6500.793          38.750  
E 7  24929039.776   131002983.918        3320.315          50.000  
R 6  21485584.199   114651197.172         374.320          37.500  
E20  49799045.635   261695753.958        5937.160          41.500  
G 1  22470708.218   118084370.292        6337.062          41.500  
R22  19609136.194   104674901.147        2119.930          52.250  
R 7  19753498.431   105742025.216        4345.403          52.250  
G11  21565852.623   113329328.242        6155.930          37.750  
> 2018  9 12 11 16  7.0000000  0 19                     
G32  23356745.366   122740520.902        5901.491          45.250  
G18  20489541.175   107673265.326        5323.132          50.000  
G 8  20329033.592   106829793.561        2948.491          53.000  
E26  22976885.690   120744346.364        1531.131          50.500  
G10  21429001.935   112610165.093        1452.566          48.500  
R 8  21796936.800   116721607.279        7597.174          49.250  
G27  21349987.741   112194941.590         772.264          50.250  
G22  24015406.536   126201824.329        6908.895          42.750  
R23  20419549.777   109230828.690        6094.782          40.000  
R21  23386828.620   125147661.923        -225.454          42.500  
G20  23313249.237   122511950.067          86.900          41.500  
G14  24473384.777   128608506.556        6500.827          38.500  
E 7  24928407.966   130999663.694        3319.937          49.750  
R 6  21485514.042   114650822.925         374.055          37.500  
E20  49797915.835   261689816.721        5937.128          41.500  
G 1  22469502.286   118078033.121        6336.919          41.250  
R22  19608739.074   104672781.341        2119.530          52.250  
R 7  19752686.722   105737680.083        4344.648          52.250  
G11  21564681.223   113323172.380        6155.692          37.750  
> 2018  9 12 11 16  8.0000000  0 19                     
G32  23355622.433   122734619.774        5900.970          45.250  
G18  20488528.235   107667942.395        5322.813          49.750  
G 8  20328472.554   106826845.310        2948.054          53.000  
E26  22976594.328   120742815.311        1531.025          50.500  
G10  21428725.576   112608712.791        1452.097          48.500  
R 8  21795518.129   116714010.249        7596.931          49.250  
G27  21349840.817   112194169.488         771.942          50.250  
G22  24014091.859   126194915.601        6908.772          42.500  
R23  20418410.411   109224734.136        6094.535          39.750  
R21  23386870.763   125147887.450        -225.536          42.250  
G20  23313232.740   122511863.355          86.657          41.500  
G14  24472147.717   128602005.777        6500.749          38.750  
E 7  24927776.259   130996343.977        3319.520          49.750  
R 6  21485443.970   114650449.326         373.458          37.500  
E20  49796786.094   261683879.776        5936.923          41.500  
G 1  22468296.383   118071696.191        6336.772          41.250  
R22  19608342.067   104670662.089        2119.081          52.250  
R 7  19751875.171   105733335.851        4343.896          52.250  
G11  21563509.892   113317016.868        6155.416          37.750  
> 2018  9 12 11 16  9.0000000  0 19                     
G32  23354499.587   122728719.221        5900.340          45.250  
G18  20487515.413   107662620.095        5322.114          49.750  
G 8  20327911.671   106823897.842        2947.196          53.000  
E26  22976303.042   120741284.660        1530.620          51.250  
G10  21428449.346   112607261.179        1451.413          48.500  
R 8  21794099.580   116706413.783        7596.343          49.250  
G27  21349694.010   112193398.001         771.302          50.000  
G22  24012777.244   126188007.224        6908.379          42.750  
R23  20417271.086   109218640.119        6093.968          39.500  
R21  23386912.983   125148113.371        -226.129          42.250  
G20  23313216.322   122511777.071          86.217          41.250  
G14  24470910.707   128595505.333        6500.357          38.750  
E 7  24927144.686   130993024.946        3318.812          50.250  
R 6  21485374.008   114650076.550         372.524          37.500  
E20  49795656.443   261677943.308        5936.349          41.750  
G 1  22467090.549   118065359.696        6336.598          41.250  
R22  19607945.195   104668543.554        2118.316          52.500  
R 7  19751063.833   105728992.743        4342.673          52.250  
G11  21562338.675   113310861.891        6154.898          37.750  
> 2018  9 12 11 16 10.0000000  0 19                     
G32  23353376.848   122722819.170        5899.749          45.500  
G18  20486502.696   107657298.357        5321.418          50.000  
G 8  20327350.925   106820951.069        2946.428          53.000  
E26  22976011.813   120739754.326        1530.127          51.000  
G10  21428173.232   112605810.192        1450.569          48.500  
R 8  21792681.118   116698817.778        7595.738          49.250  
G27  21349547.303   112192627.044         770.638          50.250  
G22  24011462.683   126181099.142        6907.832          42.750  
R23  20416131.873   109212546.537        6093.303          39.500  
R21  23386955.239   125148339.567        -226.368          42.000  
G20  23313199.967   122511691.135          85.818          41.500  
G14  24469673.763   128589005.113        6500.135          38.750  
E 7  24926513.224   130989706.520        3318.134          50.000  
R 6  21485304.153   114649704.455         371.897          37.250  
E20  49794526.867   261672007.256        5935.951          41.750  
G 1  22465884.793   118059023.574        6335.960          41.500  
R22  19607548.447   104666425.656        2117.561          52.500  
R 7  19750252.685   105724650.677        4341.512          52.250  
G11  21561167.521   113304707.345        6154.350          38.000  
> 2018  9 12 11 16 11.0000000  0 19                     
G32  23352254.199   122716919.573        5899.687          45.250  
G18  20485490.074   107651977.099        5321.306          50.000  
G 8  20326790.302   106818004.911        2946.150          52.750  
E26  22975720.626   120738224.222        1530.267          51.000  
G10  21427897.214   112604359.734        1450.437          48.500  
R 8  21791262.722   116691222.169        7595.710          49.250  
G27  21349400.690   112191856.528         770.595          50.250  
G22  24010148.176   126174191.260        6908.186          42.750  
R23  20414992.640   109206453.321        6093.302          39.500  
R21  23386997.562   125148566.020        -226.166          41.750  
G20  23313183.680   122511605.494          85.768          41.250  
G14  24468436.866   128582505.072        6500.243          38.750  
E 7  24925881.870   130986388.623        3317.911          50.250  
R 6  21485234.450   114649333.024         371.449          37.250  
E20  49793397.350   261666071.514        5935.881          41.750  
G 1  22464679.108   118052687.740        6335.906          41.250  
R22  19607151.805   104664308.309        2117.380          52.250  
R 7  19749441.707   105720309.557        4340.919          52.250  
G11  21559996.451   113298553.170        6154.294          38.000  
> 2018  9 12 11 16 12.0000000  0 19                     
G32  23351131.637   122711020.433        5898.846          45.500  
G18  20484477.550   107646656.315        5320.520          50.000  
G 8  20326229.803   106815059.385        2945.127          52.750  
E26  22975429.480   120736694.371        1529.664          51.000  
G10  21427621.306   112602909.840        1449.565          48.500  
R 8  21789844.406   116683627.012        7594.875          49.250  
G27  21349254.167   112191086.481         769.753          50.250  
G22  24008833.715   126167283.606        6907.498          42.500  
R23  20413853.507   109200360.498        6092.545          39.500  
R21  23387039.886   125148792.648        -226.849          41.250  
G20  23313167.440   122511520.148          85.078          41.250  
G14  24467200.006   128576005.209        6499.681          38.750  
E 7  24925250.620   130983071.279        3316.988          50.250  
R 6  21485164.889   114648962.260         370.354          37.500  
E20  49792267.897   261660136.109        5935.173          41.750  
G 1  22463473.468   118046352.181        6335.252          41.500  
R22  19606755.266   104662191.535        2116.403          52.250  
R 7  19748630.906   105715969.381        4339.629          52.250  
G11  21558825.462   113292399.395        6153.403          38.250  
> 2018  9 12 11 16 13.0000000  0 19                     
G32  23350009.146   122705121.720        5898.363          45.500  
G18  20483465.124   107641336.025        5319.930          50.000  
G 8  20325669.420   106812114.478        2944.498          52.750  
E26  22975138.382   120735164.773        1529.315          51.250  
G10  21427345.507   112601460.488        1449.009          48.750  
R 8  21788426.173   116676032.325        7594.334          49.000  
G27  21349107.732   112190316.897         769.302          50.250  
G22  24007519.300   126160376.175        6907.299          42.000  
R23  20412714.396   109194268.047        6092.135          40.000  
R21  23387082.210   125149019.457        -227.068          42.000  
G20  23313151.245   122511435.080          84.776          41.250  
G14  24465963.175   128569505.496        6499.487          38.750  
E 7  24924619.470   130979754.465        3316.402          50.500  
R 6  21485095.474   114648592.132         369.610          37.500  
E20  49791138.507   261654201.057        5934.802          42.000  
G 1  22462267.902   118040016.918        6334.980          41.500  
R22  19606358.832   104660075.335        2115.793          52.250  
R 7  19747820.284   105711630.160        4338.666          52.250  
G11  21557654.542   113286245.984        6153.161          38.500  
> 2018  9 12 11 16 14.0000000  0 19                     
G32  23348886.716   122699223.287        5898.264          45.500  
G18  20482452.760   107636016.031        5319.786          50.000  
G 8  20325109.118   106809170.001        2944.170          52.750  
E26  22974847.301   120733635.239        1529.433          51.250  
G10  21427069.770   112600011.512        1448.726          48.500  
R 8  21787007.972   116668437.898        7594.236          49.250  
G27  21348961.350   112189547.610         769.101          50.250  
G22  24006204.881   126153468.748        6907.282          42.500  
R23  20411575.377   109188175.805        6092.125          39.750  
R21  23387124.549   125149246.319        -226.958          41.750  
G20  23313135.069   122511350.129          84.792          41.250  
G14  24464726.346   128563005.791        6499.541          38.750  
E 7  24923988.385   130976438.015        3316.185          50.500  
R 6  21485026.172   114648222.505         369.368          37.500  
E20  49790009.143   261648266.163        5934.731          42.000  
G 1  22461062.364   118033681.752        6335.049          41.500  
R22  19605962.466   104657959.520        2115.578          52.250  
R 7  19747009.819   105707291.731        4337.957          52.250  
G11  21556483.660   113280092.763        6153.236          38.500  
> 2018  9 12 11 16 15.0000000  0 19                     
G32  23347764.363   122693325.180        5897.656          45.500  
G18  20481440.471   107630696.400        5319.175          50.000  
G 8  20324548.898   106806226.002        2943.484          52.750  
E26  22974556.242   120732105.817        1529.137          51.500  
G10  21426794.109   112598562.954        1448.049          48.750  
R 8  21785589.816   116660843.740        7593.827          49.250  
G27  21348815.018   112188778.637         768.527          50.250  
G22  24004890.471   126146561.411        6907.076          42.500  
R23  20410436.426   109182083.811        6091.641          40.250  
R21  23387166.891   125149473.276        -227.181          41.500  
G20  23313118.921   122511265.336          84.515          41.250  
G14  24463489.518   128556506.134        6499.398          38.750  
E 7  24923357.375   130973121.965        3315.612          50.750  
R 6  21484956.996   114647853.389         368.642          37.250  
E20  49788879.814   261642331.455        5934.323          42.000  
G 1  22459856.877   118027346.782        6334.537          41.250  
R22  19605566.184   104655844.147        2114.910          52.250  
R 7  19746199.519   105702954.133        4336.929          52.250  
G11  21555312.842   113273939.809        6152.610          38.500  
> 2018  9 12 11 16 16.0000000  0 19                     
G32  23346642.128   122687427.706        5897.575          45.500  
G18  20480428.308   107625377.436        5319.042          49.750  
G 8  20323988.834   106803282.813        2943.160          53.000  
E26  22974265.263   120730576.829        1529.141          51.500  
G10  21426518.582   112597115.117        1447.840          48.750  
R 8  21784171.773   116653250.172        7593.651          49.250  
G27  21348668.810   112188010.305         768.452          50.250  
G22  24003576.135   126139654.475        6907.093          42.500  
R23  20409297.664   109175992.406        6091.483          40.750  
R21  23387209.325   125149700.640        -227.206          41.750  
G20  23313102.857   122511181.022          84.421          41.250  
G14  24462252.734   128550006.831        6499.470          39.000  
E 7  24922726.498   130969806.649        3315.273          50.750  
R 6  21484887.988   114647485.137         368.323          37.250  
E20  49787750.589   261636397.256        5934.366          42.000  
G 1  22458651.464   118021012.240        6334.688          41.250  
R22  19605170.046   104653729.540        2114.617          52.500  
R 7  19745389.440   105698617.695        4336.200          52.250  
G11  21554142.129   113267787.404        6152.602          38.500  
> 2018  9 12 11 16 17.0000000  0 19                     
G32  23345519.980   122681530.697        5896.776          46.000  
G18  20479416.249   107620058.998        5318.077          49.750  
G 8  20323428.895   106800340.280        2942.133          53.000  
E26  22973974.330   120729048.102        1528.549          51.500  
G10  21426243.173   112595667.857        1446.962          48.750  
R 8  21782753.805   116645657.010        7592.871          49.250  
G27  21348522.699   112187242.470         767.565          50.250  
G22  24002261.837   126132747.768        6906.580          42.500  
R23  20408158.949   109169901.365        6090.744          40.750  
R21  23387251.785   125149928.202        -227.824          41.750  
G20  23313086.854   122511097.011          83.692          41.500  
G14  24461015.994   128543507.726        6498.878          39.000  
E 7  24922095.720   130966491.881        3314.469          50.750  
R 6  21484819.119   114647117.598         367.012          37.250  
E20  49786621.434   261630463.430        5933.565          42.000  
G 1  22457446.134   118014678.030        6334.040          41.250  
R22  19604774.024   104651615.530        2113.661          52.250  
R 7  19744579.545   105694282.229        4334.925          52.250  
G11  21552971.492   113261635.399        6151.759          38.750  
> 2018  9 12 11 16 18.0000000  0 19                     
G32  23344397.910   122675634.065        5896.704          45.750  
G18  20478404.269   107614740.973        5318.052          50.000  
G 8  20322869.059   106797398.301        2941.976          53.000  
E26  22973683.431   120727519.552        1528.723          51.000  
G10  21425967.851   112594221.065        1446.857          48.750  
R 8  21781335.912   116638064.213        7592.875          49.250  
G27  21348376.661   112186475.016         767.502          50.500  
G22  24000947.557   126125841.195        6906.812          42.500  
R23  20407020.360   109163810.627        6090.901          40.750  
R21  23387294.262   125150155.905        -227.541          41.500  
G20  23313070.891   122511013.208          83.847          41.250  
G14  24459779.259   128537008.707        6499.241          39.000  
E 7  24921465.036   130963177.589        3314.283          50.500  
R 6  21484750.380   114646750.640         366.887          37.250  
E20  49785492.325   261624529.848        5933.607          41.750  
G 1  22456240.856   118008344.041        6334.096          41.250  
R22  19604378.095   104649502.025        2113.520          52.250  
R 7  19743769.813   105689947.624        4334.444          52.000  
G11  21551800.891   113255483.704        6151.711          38.750  
> 2018  9 12 11 16 19.0000000  0 19                     
G32  23343275.918   122669737.836        5895.980          46.000  
G18  20477392.376   107609423.396        5317.379          49.750  
G 8  20322309.335   106794456.912        2941.138          53.000  
E26  22973392.570   120725991.212        1528.284          51.000  
G10  21425692.631   112592774.791        1446.082          48.750  
R 8  21779918.100   116630471.825        7592.203          49.000  
G27  21348230.699   112185707.979         766.910          50.500  
G22  23999633.319   126118934.805        6906.251          42.250  
R23  20405881.826   109157720.251        6090.262          41.000  
R21  23387336.758   125150383.799        -227.884          41.500  
G20  23313054.969   122510929.665          83.331          41.500  
G14  24458542.544   128530509.853        6498.859          38.750  
E 7  24920834.446   130959863.795        3313.542          50.000  
R 6  21484681.760   114646384.298         365.906          37.250  
E20  49784363.275   261618596.561        5933.283          41.500  
G 1  22455035.614   118002010.296        6333.652          41.500  
R22  19603982.263   104647389.050        2112.753          52.250  
R 7  19742960.233   105685613.896        4333.318          52.250  
G11  21550630.345   113249332.335        6151.293          38.750  
> 2018  9 12 11 16 20.0000000  0 19                     
G32  23342154.012   122663842.043        5895.643          45.750  
G18  20476380.567   107604106.274        5316.924          49.750  
G 8  20321749.731   106791516.125        2940.552          53.000  
E26  22973101.748   120724463.090        1528.081          51.250  
G10  21425417.515   112591329.037        1445.530          48.750  
R 8  21778500.357   116622879.849        7591.806          49.250  
G27  21348084.820   112184941.384         766.354          50.500  
G22  23998319.116   126112028.610        6906.085          42.250  
R23  20404743.452   109151630.246        6089.855          40.750  
R21  23387379.289   125150611.889        -228.021          42.000  
G20  23313039.098   122510846.376          83.269          41.500  
G14  24457305.856   128524011.124        6498.651          39.000  
E 7  24920203.947   130956550.512        3313.104          50.750  
R 6  21484613.268   114646018.617         365.230          37.250  
E20  49783234.297   261612663.613        5932.852          42.000  
G 1  22453830.425   117995676.826        6333.339          41.500  
R22  19603586.536   104645276.626        2112.168          52.500  
R 7  19742150.825   105681281.103        4332.374          52.250  
G11  21549459.867   113243181.340        6150.888          39.000  
> 2018  9 12 11 16 21.0000000  0 19                     
G32  23341032.180   122657946.651        5895.225          46.000  
G18  20475368.837   107598789.586        5316.492          49.750  
G 8  20321190.238   106788575.917        2939.941          53.000  
E26  22972810.973   120722935.172        1527.861          51.250  
G10  21425142.493   112589883.794        1445.023          48.750  
R 8  21777082.681   116615288.231        7591.431          49.250  
G27  21347939.019   112184175.193         766.065          50.500  
G22  23997004.933   126105122.569        6906.030          42.000  
R23  20403605.154   109145540.572        6089.496          40.500  
R21  23387421.892   125150840.120        -228.228          41.500  
G20  23313023.261   122510763.341          82.927          41.500  
G14  24456069.205   128517512.542        6498.507          39.000  
E 7  24919573.540   130953237.720        3312.593          50.750  
R 6  21484544.922   114645653.527         364.863          37.250  
E20  49782105.367   261606730.926        5932.562          42.250  
G 1  22452625.259   117989343.592        6333.136          41.500  
R22  19603190.908   104643164.724        2111.674          52.250  
R 7  19741341.592   105676949.232        4331.435          52.250  
G11  21548289.452   113237030.674        6150.470          39.000  
> 2018  9 12 11 16 22.0000000  0 19                     
G32  23339910.420   122652051.740        5894.596          46.000  
G18  20474357.207   107593473.423        5315.919          49.750  
G 8  20320630.881   106785636.384        2939.222          53.000  
E26  22972520.250   120721407.547        1527.485          51.000  
G10  21424867.592   112588439.138        1444.288          48.750  
R 8  21775665.109   116607697.078        7590.898          49.250  
G27  21347793.318   112183409.522         765.433          50.500  
G22  23995690.800   126098216.780        6905.698          42.000  
R23  20402466.939   109139451.310        6089.115          40.250  
R21  23387464.572   125151068.632        -228.533          41.500  
G20  23313007.482   122510680.636          82.546          41.750  
G14  24454832.583   128511014.162        6498.207          39.500  
E 7  24918943.250   130949925.521        3311.934          50.500  
R 6  21484476.718   114645289.170         363.901          37.500  
E20  49780976.505   261600798.627        5932.125          41.750  
G 1  22451420.149   117983010.692        6332.882          41.750  
R22  19602795.387   104641053.444        2111.005          52.500  
R 7  19740532.555   105672618.382        4330.373          52.250  
G11  21547119.104   113230880.441        6149.978          39.250  
> 2018  9 12 11 16 23.0000000  0 19                     
G32  23338788.721   122646157.184        5894.218          46.000  
G18  20473345.645   107588157.651        5315.413          49.500  
G 8  20320071.625   106782697.371        2938.612          53.000  
E26  22972229.556   120719880.071        1527.273          51.000  
G10  21424592.773   112586994.940        1443.807          48.750  
R 8  21774247.582   116600106.216        7590.567          49.500  
G27  21347647.684   112182644.206         764.958          50.250  
G22  23994376.707   126091311.115        6905.488          42.000  
R23  20401328.681   109133362.358        6088.674          39.750  
R21  23387507.316   125151297.269        -228.873          41.250  
G20  23312991.753   122510598.125          82.208          41.750  
G14  24453595.964   128504515.855        6498.280          39.500  
E 7  24918313.041   130946613.758        3311.377          50.500  
R 6  21484408.594   114644925.332         363.440          37.500  
E20  49779847.681   261594866.568        5931.813          42.000  
G 1  22450215.076   117976677.994        6332.467          41.500  
R22  19602399.962   104638942.630        2110.456          52.500  
R 7  19739723.676   105668288.370        4329.471          52.250  
G11  21545948.809   113224730.460        6149.711          39.000  
> 2018  9 12 11 16 24.0000000  0 19                     
G32  23337667.110   122640263.103        5894.045          46.000  
G18  20472334.169   107582842.376        5315.200          49.500  
G 8  20319512.483   106779758.991        2938.244          53.000  
E26  22971938.918   120718352.854        1527.239          51.000  
G10  21424318.052   112585551.293        1443.578          48.750  
R 8  21772830.139   116592515.801        7590.355          49.250  
G27  21347502.140   112181879.367         764.773          50.500  
G22  23993062.649   126084405.671        6905.551          42.000  
R23  20400190.484   109127273.765        6088.578          39.250  
R21  23387550.106   125151526.128        -228.708          41.500  
G20  23312976.081   122510515.911          82.178          41.500  
G14  24452359.418   128498017.778        6498.151          39.500  
E 7  24917682.934   130943302.549        3311.068          50.500  
R 6  21484340.548   114644562.185         362.962          37.500  
E20  49778718.923   261588934.854        5931.659          42.000  
G 1  22449010.070   117970345.589        6332.464          41.500  
R22  19602004.642   104636832.401        2110.125          52.500  
R 7  19738914.981   105663959.299        4328.793          52.250  
G11  21544778.593   113218580.901        6149.532          39.000  
> 2018  9 12 11 16 25.0000000  0 19                     
G32  23336545.561   122634369.393        5893.585          46.000  
G18  20471322.767   107577527.511        5314.707          49.500  
G 8  20318953.448   106776821.164        2937.584          53.000  
E26  22971648.314   120716825.811        1526.990          51.000  
G10  21424043.427   112584108.126        1443.054          48.750  
R 8  21771412.760   116584925.756        7589.878          49.500  
G27  21347356.671   112181114.924         764.297          50.500  
G22  23991748.611   126077500.365        6905.351          42.000  
R23  20399052.308   109121185.481        6088.128          38.750  
R21  23387592.900   125151755.110        -229.033          41.250  
G20  23312960.446   122510433.916          81.909          41.750  
G14  24451122.899   128491519.775        6497.943          39.500  
E 7  24917052.919   130939991.807        3310.546          50.500  
R 6  21484272.581   114644199.632         362.415          37.250  
E20  49777590.212   261583003.387        5931.373          42.000  
G 1  22447805.119   117964013.418        6331.933          41.250  
R22  19601609.420   104634722.677        2109.485          52.500  
R 7  19738106.457   105659631.103        4327.824          52.250  
G11  21543608.437   113212431.623        6149.189          39.000  
> 2018  9 12 11 16 26.0000000  0 19                     
G32  23335424.115   122628476.182        5892.825          46.000  
G18  20470311.461   107572213.153        5313.919          49.500  
G 8  20318394.534   106773883.994        2936.706          53.000  
E26  22971357.768   120715299.062        1526.456          51.000  
G10  21423768.921   112582665.558        1442.129          48.750  
R 8  21769995.477   116577336.196        7589.228          49.500  
G27  21347211.294   112180350.981         763.533          50.250  
G22  23990434.641   126070595.330        6904.866          42.000  
R23  20397914.167   109115097.635        6087.588          38.250  
R21  23387635.717   125151984.369        -229.543          41.000  
G20  23312944.876   122510352.252          81.318          41.500  
G14  24449886.417   128485022.002        6497.434          39.500  
E 7  24916423.008   130936681.650        3309.732          50.500  
R 6  21484204.758   114643837.805         361.377          37.500  
E20  49776461.575   261577072.315        5930.760          41.750  
G 1  22446600.225   117957681.561        6331.587          41.250  
R22  19601214.310   104632613.569        2108.677          52.250  
R 7  19737298.116   105655303.925        4326.562          52.250  
G11  21542438.346   113206282.785        6148.580          39.250  
> 2018  9 12 11 16 27.0000000  0 19                     
G32  23334302.753   122622583.417        5892.474          46.250  
G18  20469300.251   107566899.309        5313.465          49.750  
G 8  20317835.731   106770947.435        2936.108          53.250  
E26  22971067.272   120713772.567        1526.256          51.000  
G10  21423494.516   112581223.532        1441.617          48.750  
R 8  21768578.267   116569747.060        7588.828          49.500  
G27  21347065.999   112179587.497         763.155          50.250  
G22  23989120.719   126063690.525        6904.540          42.000  
R23  20396776.001   109109010.157        6087.123          38.250  
R21  23387678.567   125152213.849        -229.713          40.750  
G20  23312929.373   122510270.874          81.172          41.750  
G14  24448649.969   128478524.398        6497.404          39.750  
E 7  24915793.207   130933372.031        3309.264          50.500  
R 6  21484137.080   114643476.646         360.735          37.500  
E20  49775333.000   261571141.574        5930.434          41.750  
G 1  22445395.390   117951350.009        6331.249          41.500  
R22  19600819.316   104630505.049        2108.080          52.250  
R 7  19736489.965   105650977.724        4325.605          52.250  
G11  21541268.329   113200134.336        6148.176          38.750  
> 2018  9 12 11 16 28.0000000  0 19                     
G32  23333181.480   122616691.115        5892.281          46.000  
G18  20468289.139   107561585.967        5313.271          49.750  
G 8  20317277.045   106768011.523        2935.805          53.250  
E26  22970776.821   120712246.315        1526.309          51.000  
G10  21423220.217   112579782.071        1441.344          48.750  
R 8  21767161.146   116562158.364        7588.705          49.500  
G27  21346920.798   112178824.484         763.033          50.250  
G22  23987806.835   126056785.923        6904.613          42.000  
R23  20395637.892   109102923.068        6086.966          38.000  
R21  23387721.430   125152443.514        -229.545          40.750  
G20  23312913.949   122510189.801          81.181          41.750  
G14  24447413.565   128472026.979        6497.652          39.750  
E 7  24915163.510   130930062.965        3308.994          50.750  
R 6  21484069.575   114643116.168         360.231          37.500  
E20  49774204.486   261565211.168        5930.378          42.000  
G 1  22444190.614   117945018.752        6331.347          41.500  
R22  19600424.434   104628397.111        2107.828          52.250  
R 7  19735682.000   105646652.503        4324.929          52.000  
G11  21540098.386   113193986.262        6148.113          39.250  
> 2018  9 12 11 16 29.0000000  0 19                     
G32  23332060.260   122610799.088        5891.731          46.000  
G18  20467278.081   107556272.915        5312.789          49.750  
G 8  20316718.437   106765076.054        2935.169          53.250  
E26  22970486.390   120710720.131        1526.050          51.000  
G10  21422945.981   112578340.973        1440.838          48.750  
R 8  21765744.042   116554569.898        7588.292          49.500  
G27  21346775.651   112178061.749         762.504          50.250  
G22  23986492.949   126049881.360        6904.487          42.250  
R23  20394499.842   109096836.178        6086.702          37.750  
R21  23387764.328   125152673.223        -229.827          40.500  
G20  23312898.544   122510108.830          80.857          41.750  
G14  24446177.164   128465529.548        6497.464          40.000  
E 7  24914533.873   130926754.251        3308.414          50.750  
R 6  21484002.157   114642756.131         359.764          37.250  
E20  49773075.999   261559280.912        5930.187          42.000  
G 1  22442985.844   117938687.610        6331.064          41.750  
R22  19600029.637   104626289.571        2107.231          52.250  
R 7  19734874.163   105642328.061        4323.949          52.000  
G11  21538928.447   113187838.385        6147.744          39.000  
> 2018  9 12 11 16 30.0000000  0 19                     
G32  23330939.107   122604907.421        5891.588          45.750  
G18  20466267.104   107550960.258        5312.596          49.750  
G 8  20316159.934   106762141.127        2934.764          53.250  
E26  22970195.993   120709194.115        1526.049          51.000  
G10  21422671.836   112576900.346        1440.483          48.750  
R 8  21764327.007   116546981.768        7588.099          49.500  
G27  21346630.574   112177299.403         762.209          50.250  
G22  23985179.071   126042976.921        6904.406          42.250  
R23  20393361.850   109090749.615        6086.477          37.750  
R21  23387807.251   125152903.055        -229.698          40.250  
G20  23312883.160   122510028.060          80.795          41.750  
G14  24444940.787   128459032.229        6497.443          39.750  
E 7  24913904.317   130923445.996        3308.177          51.000  
R 6  21483934.864   114642396.678         359.239          37.500  
E20  49771947.560   261553350.906        5929.938          42.250  
G 1  22441781.111   117932356.685        6330.754          41.750  
R22  19599634.924   104624182.526        2106.902          52.250  
R 7  19734066.495   105638004.484        4323.233          52.250  
G11  21537758.564   113181690.824        6147.420          39.000  
> 2018  9 12 11 16 31.0000000  0 19                     
G32  23329818.041   122599016.229        5890.905          45.500  
G18  20465256.237   107545648.124        5311.830          49.750  
G 8  20315601.543   106759206.847        2933.914          53.000  
E26  22969905.650   120707668.372        1525.523          51.000  
G10  21422397.803   112575460.292        1439.688          48.750  
R 8  21762910.048   116539394.082        7587.395          49.750  
G27  21346485.588   112176537.533         761.550          50.250  
G22  23983865.241   126036072.712        6904.119          41.750  
R23  20392223.905   109084663.446        6085.719          38.000  
R21  23387850.224   125153133.146        -230.270          40.250  
G20  23312867.842   122509947.627          80.158          41.500  
G14  24443704.459   128452535.116        6496.926          40.000  
E 7  24913274.872   130920138.314        3307.381          51.000  
R 6  21483867.683   114642037.907         358.292          37.250  
E20  49770819.192   261547421.270        5929.529          42.250  
G 1  22440576.424   117926026.052        6330.424          41.750  
R22  19599240.309   104622076.082        2106.092          52.250  
R 7  19733258.996   105633681.870        4322.031          52.250  
G11  21536588.750   113175543.636        6146.949          39.250  
> 2018  9 12 11 16 32.0000000  0 19                     
G32  23328697.083   122593125.536        5890.508          45.750  
G18  20464245.477   107540336.493        5311.343          49.750  
G 8  20315043.284   106756273.236        2933.329          53.000  
E26  22969615.358   120706142.912        1525.316          51.000  
G10  21422123.873   112574020.812        1439.265          48.750  
R 8  21761493.185   116531806.852        7587.012          49.750  
G27  21346340.700   112175776.159         761.167          50.250  
G22  23982551.465   126029168.754        6903.924          41.750  
R23  20391086.130   109078577.696        6085.500          37.750  
R21  23387893.223   125153363.455        -230.330          40.000  
G20  23312852.569   122509867.498          79.963          41.500  
G14  24442468.168   128446038.183        6496.824          40.000  
E 7  24912645.538   130916831.201        3306.841          51.000  
R 6  21483800.620   114641679.831         357.905          37.250  
E20  49769690.897   261541492.012        5929.196          42.250  
G 1  22439371.785   117919695.746        6330.187          41.750  
R22  19598845.808   104619970.238        2105.607          52.000  
R 7  19732451.691   105629360.248        4321.198          52.250  
G11  21535419.008   113169396.895        6146.534          39.250  
> 2018  9 12 11 16 33.0000000  0 19                     
G32  23327576.207   122587235.297        5890.156          46.000  
G18  20463234.816   107535025.361        5310.949          49.500  
G 8  20314485.143   106753340.249        2932.728          53.000  
E26  22969325.116   120704617.704        1525.173          50.500  
G10  21421850.048   112572581.899        1438.674          48.750  
R 8  21760076.391   116524220.051        7586.645          49.750  
G27  21346195.901   112175015.268         760.684          50.250  
G22  23981237.728   126022265.042        6903.656          41.500  
R23  20389948.375   109072492.350        6085.199          38.000  
R21  23387936.249   125153593.994        -230.549          39.750  
G20  23312837.346   122509787.655          79.832          41.500  
G14  24441231.909   128439541.463        6496.698          40.000  
E 7  24912016.313   130913524.636        3306.316          50.500  
R 6  21483733.656   114641322.422         356.986          37.250  
E20  49768562.665   261535563.090        5928.726          42.000  
G 1  22438167.219   117913365.761        6329.942          42.000  
R22  19598451.410   104617864.967        2105.062          52.250  
R 7  19731644.560   105625039.604        4320.199          52.000  
G11  21534249.345   113163250.531        6146.285          39.250  
> 2018  9 12 11 16 34.0000000  0 19                     
G32  23326455.398   122581345.377        5889.658          46.000  
G18  20462224.223   107529714.590        5310.516          49.750  
G 8  20313927.100   106750407.753        2932.149          53.250  
E26  22969034.902   120703092.620        1524.886          50.750  
G10  21421576.302   112571143.400        1438.187          48.750  
R 8  21758659.680   116516633.548        7586.279          49.750  
G27  21346051.162   112174254.696         760.317          50.250  
G22  23979924.015   126015361.404        6903.471          41.500  
R23  20388810.773   109066407.262        6084.847          38.250  
R21  23387979.253   125153824.603        -230.736          39.250  
G20  23312822.153   122509707.989          79.506          41.500  
G14  24439995.658   128433044.782        6496.562          40.000  
E 7  24911387.157   130910218.476        3305.865          51.000  
R 6  21483666.802   114640965.548         356.418          37.250  
E20  49767434.469   261529634.366        5928.643          42.500  
G 1  22436962.669   117907035.925        6329.669          42.000  
R22  19598057.084   104615760.132        2104.521          52.250  
R 7  19730837.577   105620719.785        4319.330          52.000  
G11  21533079.737   113157104.425        6145.837          39.500  
> 2018  9 12 11 16 35.0000000  0 19                     
G32  23325334.688   122575455.965        5889.131          46.000  
G18  20461213.733   107524404.357        5309.931          49.500  
G 8  20313369.185   106747475.931        2931.433          53.250  
E26  22968744.740   120701567.830        1524.570          50.750  
G10  21421302.670   112569705.504        1437.486          48.750  
R 8  21757243.064   116509047.532        7585.752          49.750  
G27  21345906.520   112173494.648         759.743          50.250  
G22  23978610.352   126008458.026        6903.191          41.750  
R23  20387673.344   109060322.626        6084.413          38.250  
R21  23388022.342   125154055.507        -231.078          39.250  
G20  23312807.030   122509628.655          79.174          41.500  
G14  24438759.442   128426548.334        6496.311          40.250  
E 7  24910758.120   130906912.912        3305.208          50.750  
R 6  21483600.062   114640609.377         355.973          37.250  
E20  49766306.341   261523706.046        5928.081          42.250  
G 1  22435758.192   117900706.444        6329.271          42.000  
R22  19597662.881   104613655.918        2103.837          52.250  
R 7  19730030.778   105616400.957        4318.290          52.000  
G11  21531910.203   113150958.746        6145.450          39.750  
> 2018  9 12 11 16 36.0000000  0 19                     
G32  23324214.078   122569567.037        5888.970          46.250  
G18  20460203.346   107519094.644        5309.726          49.500  
G 8  20312811.401   106744544.771        2931.053          53.250  
E26  22968454.640   120700043.323        1524.532          50.500  
G10  21421029.153   112568268.182        1437.185          48.750  
R 8  21755826.542   116501461.967        7585.602          49.750  
G27  21345761.969   112172735.081         759.625          50.250  
G22  23977296.735   126001554.894        6903.262          41.750  
R23  20386535.953   109054238.381        6084.227          38.750  
R21  23388065.483   125154286.647        -230.988          39.500  
G20  23312791.967   122509549.643          78.996          41.250  
G14  24437523.259   128420052.093        6496.411          40.250  
E 7  24910129.200   130903607.920        3304.983          50.500  
R 6  21483533.416   114640253.939         355.366          37.250  
E20  49765178.274   261517778.084        5927.962          42.250  
G 1  22434553.778   117894377.282        6329.197          42.000  
R22  19597268.786   104611552.305        2103.555          52.000  
R 7  19729224.160   105612083.097        4317.609          52.000  
G11  21530740.746   113144813.489        6145.347          39.500  
> 2018  9 12 11 16 37.0000000  0 19                     
G32  23323093.548   122563678.514        5888.374          46.250  
G18  20459193.039   107513785.363        5309.107          49.500  
G 8  20312253.722   106741614.185        2930.355          53.250  
E26  22968164.573   120698519.014        1524.222          50.000  
G10  21420755.727   112566831.362        1436.637          48.750  
R 8  21754410.094   116493876.769        7585.043          49.750  
G27  21345617.499   112171975.936         758.952          50.250  
G22  23975983.154   125994651.922        6902.988          41.500  
R23  20385398.637   109048154.471        6083.617          38.500  
R21  23388108.688   125154517.965        -231.513          39.250  
G20  23312776.951   122509470.866          78.731          41.500  
G14  24436287.090   128413555.980        6496.124          40.250  
E 7  24909500.368   130900303.421        3304.330          50.250  
R 6  21483466.870   114639899.093         354.496          37.250  
E20  49764050.259   261511850.409        5927.617          42.000  
G 1  22433349.408   117888048.374        6328.743          42.000  
R22  19596874.789   104609449.229        2102.838          52.250  
R 7  19728417.705   105607766.137        4316.524          52.000  
G11  21529571.353   113138668.550        6144.931          39.500  
> 2018  9 12 11 16 38.0000000  0 19                     
G32  23321973.090   122557790.351        5888.000          46.250  
G18  20458182.804   107508476.482        5308.646          49.500  
G 8  20311696.149   106738684.126        2929.748          53.250  
E26  22967874.538   120696994.859        1524.012          50.250  
G10  21420482.395   112565395.005        1436.073          48.750  
R 8  21752993.717   116486291.904        7584.664          49.750  
G27  21345473.093   112171217.151         758.534          50.250  
G22  23974669.592   125987749.082        6902.793          41.500  
R23  20384261.459   109042070.853        6083.399          39.000  
R21  23388151.904   125154749.374        -231.448          39.000  
G20  23312761.987   122509392.289          78.385          41.500  
G14  24435050.924   128407059.940        6495.917          40.250  
E 7  24908871.621   130896999.362        3303.772          50.250  
R 6  21483400.429   114639544.811         354.034          37.000  
E20  49762922.286   261505922.968        5927.306          42.250  
G 1  22432145.077   117881719.638        6328.576          42.250  
R22  19596480.884   104607346.637        2102.313          52.250  
R 7  19727611.408   105603450.066        4315.572          52.250  
G11  21528402.036   113132523.914        6144.494          39.500  
> 2018  9 12 11 16 39.0000000  0 19                     
G32  23320852.707   122551902.608        5887.439          46.000  
G18  20457172.654   107503168.048        5308.152          49.500  
G 8  20311138.692   106735754.654        2929.106          53.250  
E26  22967584.540   120695470.913        1523.707          50.500  
G10  21420209.159   112563959.156        1435.488          48.750  
R 8  21751577.395   116478707.417        7584.265          49.500  
G27  21345328.774   112170458.789         758.070          50.250  
G22  23973356.064   125980846.425        6902.471          41.250  
R23  20383124.315   109035987.575        6082.990          39.250  
R21  23388195.167   125154980.975        -231.837          39.250  
G20  23312747.077   122509313.963          78.142          41.500  
G14  24433814.784   128400564.050        6495.612          40.250  
E 7  24908242.963   130893695.813        3303.194          50.500  
R 6  21483334.107   114639191.165         353.351          36.750  
E20  49761794.373   261499995.845        5926.846          42.500  
G 1  22430940.806   117875391.176        6328.273          42.250  
R22  19596087.088   104605244.595        2101.719          52.250  
R 7  19726805.284   105599134.947        4314.607          52.250  
G11  21527232.806   113126379.624        6144.061          39.500  
> 2018  9 12 11 16 40.0000000  0 19                     
G32  23319732.393   122546015.258        5887.128          46.250  
G18  20456162.590   107497860.059        5307.650          49.500  
G 8  20310581.344   106732825.753        2928.530          53.250  
E26  22967294.585   120693947.165        1523.583          50.500  
G10  21419936.026   112562523.806        1435.088          48.750  
R 8  21750161.118   116471123.293        7583.874          49.500  
G27  21345184.537   112169700.848         757.667          50.250  
G22  23972042.585   125973943.937        6902.228          41.250  
R23  20381987.215   109029904.647        6082.751          39.500  
R21  23388238.444   125155212.741        -231.917          39.000  
G20  23312732.219   122509235.873          77.857          41.250  
G14  24432578.673   128394068.304        6495.485          40.000  
E 7  24907614.402   130890392.754        3302.758          50.500  
R 6  21483267.910   114638838.123         352.724          37.250  
E20  49760666.512   261494068.998        5926.658          42.500  
G 1  22429736.584   117869062.952        6327.987          42.250  
R22  19595693.394   104603143.072        2101.180          52.250  
R 7  19725999.333   105594820.721        4313.735          52.250  
G11  21526063.651   113120235.645        6143.833          39.500  
> 2018  9 12 11 16 41.0000000  0 19                     
G32  23318612.164   122540128.297        5886.743          46.250  
G18  20455152.602   107492552.489        5307.338          49.500  
G 8  20310024.094   106729897.397        2928.079          53.250  
E26  22967004.665   120692423.590        1523.478          50.750  
G10  21419662.988   112561088.927        1434.610          48.750  
R 8  21748744.919   116463539.540        7583.581          49.500  
G27  21345040.374   112168943.278         757.417          50.250  
G22  23970729.132   125967041.580        6902.288          41.250  
R23  20380850.256   109023822.046        6082.359          39.750  
R21  23388281.762   125155444.656        -231.995          39.000  
G20  23312717.410   122509157.987          77.780          41.500  
G14  24431342.580   128387572.644        6495.544          40.250  
E 7  24906985.926   130887090.159        3302.357          50.500  
R 6  21483201.845   114638485.639         352.267          37.250  
E20  49759538.702   261488142.414        5926.483          42.750  
G 1  22428532.405   117862734.949        6327.764          42.250  
R22  19595299.793   104601042.042        2100.753          52.250  
R 7  19725193.534   105590507.332        4312.940          52.500  
G11  21524894.593   113114091.992        6143.521          39.500  
> 2018  9 12 11 16 42.0000000  0 19                     
G32  23317491.954   122534241.562        5886.607          46.250  
G18  20454142.655   107487245.183        5307.197          49.500  
G 8  20309466.929   106726969.469        2927.708          53.250  
E26  22966714.751   120690900.050        1523.510          50.750  
G10  21419390.012   112559654.393        1434.229          48.500  
R 8  21747328.762   116455956.028        7583.352          49.500  
G27  21344896.267   112168185.973         757.201          50.250  
G22  23969415.692   125960139.223        6902.397          41.000  
R23  20379713.336   109017739.589        6082.358          40.000  
R21  23388325.098   125155676.563        -232.008          39.250  
G20  23312702.630   122509080.188          77.697          41.250  
G14  24430106.475   128381076.951        6495.644          40.000  
E 7  24906357.515   130883787.890        3302.098          50.750  
R 6  21483135.902   114638133.598         351.811          37.250  
E20  49758410.918   261482215.959        5926.326          42.750  
G 1  22427328.231   117856407.017        6327.848          42.250  
R22  19594906.265   104598941.370        2100.489          52.250  
R 7  19724387.878   105586194.672        4312.292          52.500  
G11  21523725.583   113107948.508        6143.368          39.500  
> 2018  9 12 11 16 43.0000000  0 19                     
G32  23316371.853   122528355.342        5885.986          46.250  
G18  20453132.811   107481938.430        5306.535          49.500  
G 8  20308909.891   106724042.206        2926.950          53.250  
E26  22966424.897   120689376.812        1523.094          50.750  
G10  21419117.145   112558220.443        1433.599          48.500  
R 8  21745912.694   116448373.005        7582.785          49.500  
G27  21344752.250   112167429.177         756.545          50.500  
G22  23968102.316   125953237.150        6902.053          41.000  
R23  20378576.555   109011657.583        6081.889          39.750  
R21  23388368.503   125155908.709        -232.242          39.000  
G20  23312687.911   122509002.720          77.405          41.250  
G14  24428870.410   128374581.478        6495.400          40.250  
E 7  24905729.218   130880486.218        3301.427          50.750  
R 6  21483070.065   114637782.259         351.099          37.250  
E20  49757283.201   261476289.875        5925.968          42.750  
G 1  22426124.118   117850079.435        6327.519          42.250  
R22  19594512.868   104596841.337        2099.730          52.250  
R 7  19723582.419   105581883.023        4311.160          52.500  
G11  21522556.658   113101805.440        6142.936          39.250  
> 2018  9 12 11 16 44.0000000  0 19                     
G32  23315251.819   122522469.510        5885.645          46.000  
G18  20452123.042   107476632.084        5306.129          49.500  
G 8  20308352.958   106721115.504        2926.488          53.250  
E26  22966135.079   120687853.750        1523.050          50.500  
G10  21418844.366   112556786.962        1433.361          48.500  
R 8  21744496.672   116440790.306        7582.563          49.250  
G27  21344608.316   112166672.765         756.264          50.500  
G22  23966788.971   125946335.206        6902.054          41.500  
R23  20377439.844   109005575.879        6081.708          39.500  
R21  23388411.937   125156140.997        -232.282          39.250  
G20  23312673.236   122508925.467          77.168          41.250  
G14  24427634.384   128368086.125        6495.368          40.250  
E 7  24905101.008   130877185.007        3301.007          50.500  
R 6  21483004.336   114637431.497         350.810          37.250  
E20  49756155.539   261470364.073        5925.741          42.750  
G 1  22424920.035   117843752.071        6327.359          42.250  
R22  19594119.564   104594741.807        2099.362          52.250  
R 7  19722777.136   105577572.271        4310.348          52.500  
G11  21521387.768   113095662.701        6142.645          39.500  
> 2018  9 12 11 16 45.0000000  0 19                     
G32  23314131.840   122516584.033        5885.364          46.000  
G18  20451113.353   107471326.139        5305.748          49.500  
G 8  20307796.129   106718189.350        2925.898          53.250  
E26  22965845.289   120686330.849        1522.815          50.750  
G10  21418571.671   112555353.959        1432.803          48.500  
R 8  21743080.711   116433207.942        7582.219          49.500  
G27  21344464.453   112165916.728         755.829          50.500  
G22  23965475.658   125939433.406        6901.806          41.500  
R23  20376303.090   108999494.485        6081.335          39.000  
R21  23388455.439   125156373.441        -232.418          39.000  
G20  23312658.606   122508848.436          76.936          41.500  
G14  24426398.386   128361590.865        6495.157          40.250  
E 7  24904472.892   130873884.263        3300.495          50.750  
R 6  21482938.717   114637081.326         349.809          37.500  
E20  49755027.923   261464438.517        5925.421          43.000  
G 1  22423715.981   117837424.913        6326.994          42.000  
R22  19593726.358   104592642.771        2098.783          52.250  
R 7  19721972.029   105573262.411        4309.410          52.750  
G11  21520218.926   113089520.250        6142.407          39.250  
> 2018  9 12 11 16 46.0000000  0 19                     
G32  23313011.929   122510698.906        5884.856          46.000  
G18  20450103.739   107466020.564        5305.340          49.250  
G 8  20307239.390   106715263.699        2925.299          53.000  
E26  22965555.525   120684808.082        1522.615          50.750  
G10  21418299.056   112553921.396        1432.309          48.500  
R 8  21741664.809   116425625.898        7581.768          49.500  
G27  21344320.658   112165161.041         755.434          50.500  
G22  23964162.366   125932531.710        6901.469          41.250  
R23  20375166.346   108993413.360        6081.024          38.500  
R21  23388498.959   125156605.963        -232.682          39.000  
G20  23312643.990   122508771.555          76.787          41.500  
G14  24425162.418   128355095.668        6495.039          40.000  
E 7  24903844.858   130870583.941        3300.017          50.750  
R 6  21482873.214   114636731.694         349.311          37.250  
E20  49753900.345   261458513.168        5925.085          42.750  
G 1  22422511.961   117831097.943        6326.779          42.000  
R22  19593333.232   104590544.188        2098.297          52.250  
R 7  19721167.091   105568953.403        4308.490          52.500  
G11  21519050.124   113083378.080        6141.981          39.250  
> 2018  9 12 11 16 47.0000000  0 19                     
G32  23311892.103   122504814.250        5884.394          45.750  
G18  20449094.221   107460715.477        5304.788          49.250  
G 8  20306682.779   106712338.702        2924.653          53.000  
E26  22965265.813   120683285.579        1522.360          50.750  
G10  21418026.545   112552489.395        1431.690          48.500  
R 8  21740248.997   116418044.309        7581.396          49.500  
G27  21344176.951   112164405.833         754.968          50.500  
G22  23962849.116   125925630.236        6901.403          41.250  
R23  20374029.665   108987332.642        6080.520          38.250  
R21  23388542.495   125156838.697        -232.791          39.750  
G20  23312629.434   122508695.002          76.397          41.250  
G14  24423926.487   128348600.670        6494.946          40.000  
E 7  24903216.926   130867284.173        3299.491          50.750  
R 6  21482807.872   114636382.742         348.688          37.500  
E20  49752772.838   261452588.186        5924.786          43.000  
G 1  22421308.007   117824771.271        6326.563          42.000  
R22  19592940.214   104588446.186        2097.692          52.250  
R 7  19720362.341   105564645.362        4307.563          52.750  
G11  21517881.358   113077236.290        6141.548          39.000  
> 2018  9 12 11 16 48.0000000  0 19                     
G32  23310772.384   122498930.172        5883.675          45.750  
G18  20448084.825   107455411.005        5304.064          49.250  
G 8  20306126.306   106709414.445        2923.762          53.000  
E26  22964976.169   120681763.451        1521.823          50.750  
G10  21417754.162   112551058.061        1430.947          48.250  
R 8  21738833.278   116410463.282        7580.638          49.250  
G27  21344033.353   112163651.207         754.231          50.250  
G22  23961535.928   125918729.092        6901.205          41.250  
R23  20372893.059   108981252.431        6079.779          37.750  
R21  23388586.068   125157071.797        -233.291          39.500  
G20  23312614.965   122508618.844          75.842          41.250  
G14  24422690.604   128342105.986        6494.373          40.000  
E 7  24902589.119   130863985.073        3298.675          50.750  
R 6  21482742.672   114636034.595         347.812          37.750  
E20  49751645.418   261446663.664        5924.126          42.750  
G 1  22420104.136   117818445.025        6325.960          41.500  
R22  19592547.318   104586348.876        2096.900          52.250  
R 7  19719557.802   105560338.399        4306.298          52.750  
G11  21516712.702   113071095.023        6141.023          38.750  
> 2018  9 12 11 16 49.0000000  0 19                     
G32  23309652.760   122493046.602        5883.283          45.750  
G18  20447075.538   107450107.067        5303.634          49.250  
G 8  20305569.963   106706490.871        2923.215          53.000  
E26  22964686.586   120680241.626        1521.713          50.750  
G10  21417481.896   112549627.342        1430.524          48.500  
R 8  21737417.649   116402882.714        7580.325          49.500  
G27  21343889.860   112162897.102         753.798          50.250  
G22  23960222.793   125911828.254        6900.592          41.000  
R23  20371756.459   108975172.646        6079.567          37.500  
R21  23388629.674   125157305.168        -233.387          39.500  
G20  23312600.558   122508543.032          75.631          41.500  
G14  24421454.763   128335611.528        6494.364          40.250  
E 7  24901961.435   130860686.572        3298.129          51.000  
R 6  21482677.579   114635687.189         347.000          37.750  
E20  49750518.070   261440739.529        5923.949          43.000  
G 1  22418900.331   117812119.128        6325.650          41.750  
R22  19592154.539   104584252.205        2096.312          52.500  
R 7  19718753.446   105556032.437        4305.455          52.750  
G11  21515544.121   113064954.185        6140.726          39.000  
> 2018  9 12 11 16 50.0000000  0 19                     
G32  23308533.201   122487163.345        5882.993          46.000  
G18  20446066.316   107444803.490        5303.355          49.250  
G 8  20305013.713   106703567.799        2922.807          53.000  
E26  22964397.027   120678719.914        1521.602          50.750  
G10  21417209.718   112548197.030        1430.076          48.500  
R 8  21736002.085   116395302.441        7580.085          49.250  
G27  21343746.434   112162143.327         753.592          50.500  
G22  23958909.664   125904927.469        6900.723          41.000  
R23  20370619.839   108969093.104        6079.420          37.750  
R21  23388673.291   125157538.620        -233.383          39.750  
G20  23312586.181   122508467.384          75.535          41.500  
G14  24420218.917   128329117.123        6494.350          40.000  
E 7  24901333.822   130857388.469        3297.851          50.750  
R 6  21482612.550   114635340.302         346.596          37.500  
E20  49749390.767   261434815.615        5923.783          42.750  
G 1  22417696.554   117805793.380        6325.712          41.750  
R22  19591761.842   104582155.965        2095.978          52.500  
R 7  19717949.244   105551727.310        4304.661          52.750  
G11  21514375.583   113058813.596        6140.621          39.000  
> 2018  9 12 11 16 51.0000000  0 19                     
G32  23307413.729   122481280.561        5882.595          46.000  
G18  20445057.190   107439500.426        5302.866          49.250  
G 8  20304457.587   106700645.365        2922.163          53.000  
E26  22964107.519   120677198.467        1521.374          50.500  
G10  21416937.640   112546767.275        1429.546          48.500  
R 8  21734586.599   116387722.608        7579.689          49.250  
G27  21343603.094   112161390.030         753.128          50.500  
G22  23957596.568   125898026.921        6900.574          41.250  
R23  20369483.217   108963013.980        6078.877          37.500  
R21  23388716.925   125157772.276        -233.687          40.000  
G20  23312571.848   122508392.017          75.297          41.000  
G14  24418983.094   128322622.909        6494.093          40.000  
E 7  24900706.328   130854090.927        3297.360          50.500  
R 6  21482547.634   114634994.099         345.947          37.750  
E20  49748263.537   261428892.053        5923.510          42.500  
G 1  22416492.838   117799467.955        6325.305          41.500  
R22  19591369.246   104580060.322        2095.378          52.250  
R 7  19717145.229   105547423.168        4303.716          52.750  
G11  21513207.114   113052673.420        6140.018          39.000  
> 2018  9 12 11 16 52.0000000  0 19                     
G32  23306294.355   122475398.230        5882.091          46.000  
G18  20444048.157   107434197.841        5302.336          49.500  
G 8  20303901.574   106697723.530        2921.561          53.000  
E26  22963818.056   120675677.260        1521.102          50.250  
G10  21416665.662   112545338.068        1428.911          48.500  
R 8  21733171.189   116380143.202        7579.280          49.250  
G27  21343459.841   112160637.185         752.608          50.500  
G22  23956283.518   125891126.594        6900.253          41.250  
R23  20368346.653   108956935.248        6078.505          38.000  
R21  23388760.570   125158006.125        -233.769          39.500  
G20  23312557.565   122508316.946          74.922          41.000  
G14  24417747.299   128316128.859        6493.956          40.000  
E 7  24900078.935   130850793.920        3296.753          50.500  
R 6  21482482.842   114634648.568         345.334          38.000  
E20  49747136.366   261422968.796        5923.087          42.250  
G 1  22415289.177   117793142.800        6325.096          41.750  
R22  19590976.765   104577965.254        2094.797          52.250  
R 7  19716341.385   105543119.965        4302.748          52.750  
G11  21512038.713   113046533.615        6139.595          38.750  
> 2018  9 12 11 16 53.0000000  0 19                     
G32  23305175.045   122469516.268        5881.714          46.000  
G18  20443039.199   107428895.669        5301.908          49.250  
G 8  20303345.671   106694802.247        2920.944          53.000  
E26  22963528.631   120674156.233        1520.870          50.500  
G10  21416393.778   112543909.334        1428.451          48.500  
R 8  21731755.842   116372564.161        7578.830          49.250  
G27  21343316.652   112159884.726         752.172          50.500  
G22  23954970.496   125884226.416        6899.982          41.000  
R23  20367210.193   108950856.818        6078.197          38.250  
R21  23388804.246   125158240.166        -234.189          39.750  
G20  23312543.327   122508242.092          74.764          41.250  
G14  24416511.518   128309634.919        6493.929          40.250  
E 7  24899451.636   130847497.380        3296.204          50.500  
R 6  21482418.169   114634303.620         344.531          38.000  
E20  49746009.248   261417045.821        5922.739          42.500  
G 1  22414085.578   117786817.891        6324.790          41.750  
R22  19590584.380   104575870.694        2094.249          52.250  
R 7  19715537.702   105538817.645        4301.823          52.750  
G11  21510870.383   113040394.117        6139.359          38.750  
> 2018  9 12 11 16 54.0000000  0 19                     
G32  23304055.823   122463634.767        5881.299          46.000  
G18  20442030.328   107423593.975        5301.381          49.500  
G 8  20302789.880   106691881.570        2920.320          53.000  
E26  22963239.256   120672635.449        1520.606          50.250  
G10  21416122.001   112542481.143        1427.891          48.500  
R 8  21730340.579   116364985.570        7578.310          49.250  
G27  21343173.550   112159132.725         751.775          50.500  
G22  23953657.499   125877326.432        6899.744          41.000  
R23  20366073.820   108944778.785        6077.872          38.750  
R21  23388847.965   125158474.409        -234.677          39.500  
G20  23312529.142   122508167.521          74.366          41.250  
G14  24415275.783   128303141.164        6493.578          40.250  
E 7  24898824.437   130844201.376        3295.619          50.500  
R 6  21482353.620   114633959.308         343.928          38.250  
E20  49744882.196   261411123.175        5922.515          42.500  
G 1  22412882.040   117780493.262        6324.390          41.500  
R22  19590192.098   104573776.692        2093.679          52.500  
R 7  19714734.196   105534516.276        4300.847          52.750  
G11  21509702.108   113034255.006        6138.767          38.750  
> 2018  9 12 11 16 55.0000000  0 19                     
G32  23302936.643   122457753.508        5880.758          46.000  
G18  20441021.512   107418292.569        5300.856          49.500  
G 8  20302234.172   106688961.315        2919.638          52.750  
E26  22962949.879   120671114.696        1520.361          50.500  
G10  21415850.293   112541053.295        1427.208          48.250  
R 8  21728925.366   116357407.204        7577.787          49.250  
G27  21343030.497   112158380.972         751.218          50.250  
G22  23952344.504   125870426.447        6899.504          40.750  
R23  20364937.459   108938700.905        6077.330          38.750  
R21  23388891.638   125158708.602        -234.507          39.750  
G20  23312514.970   122508093.021          74.071          41.250  
G14  24414040.035   128296647.361        6493.429          39.750  
E 7  24898197.306   130840905.705        3295.059          50.750  
R 6  21482289.161   114633615.391         343.382          38.000  
E20  49743755.168   261405200.662        5922.085          42.500  
G 1  22411678.516   117774168.697        6324.155          41.500  
R22  19589799.880   104571683.058        2093.021          52.500  
R 7  19713930.822   105530215.644        4299.848          52.750  
G11  21508533.853   113028116.034        6138.631          38.750  
> 2018  9 12 11 16 56.0000000  0 19                     
G32  23301817.581   122451872.832        5880.301          45.750  
G18  20440012.812   107412991.788        5300.438          49.500  
G 8  20301678.608   106686041.814        2919.102          53.000  
E26  22962660.580   120669594.326        1520.117          50.250  
G10  21415578.710   112539626.115        1426.811          48.500  
R 8  21727510.256   116349829.366        7577.536          49.250  
G27  21342887.548   112157629.810         750.832          50.250  
G22  23951031.569   125863526.803        6899.467          40.750  
R23  20363801.332   108932623.582        6077.019          39.000  
R21  23388935.424   125158943.189        -234.610          39.500  
G20  23312500.885   122508018.938          73.873          41.000  
G14  24412804.366   128290153.875        6493.314          40.250  
E 7  24897570.298   130837610.698        3294.625          50.500  
R 6  21482224.895   114633272.264         342.661          38.000  
E20  49742628.230   261399278.607        5921.806          42.500  
G 1  22410475.076   117767844.567        6323.936          41.500  
R22  19589407.798   104569590.112        2092.533          52.500  
R 7  19713127.650   105525916.098        4298.920          52.750  
G11  21507365.702   113021977.615        6138.092          38.750  
> 2018  9 12 11 16 57.0000000  0 19                     
G32  23300698.608   122445992.567        5879.983          45.750  
G18  20439004.192   107407691.440        5300.144          49.250  
G 8  20301123.156   106683122.910        2918.571          53.000  
E26  22962371.317   120668074.161        1520.013          50.250  
G10  21415307.226   112538199.442        1426.471          48.250  
R 8  21726095.211   116342251.884        7577.258          49.000  
G27  21342744.675   112156879.063         750.544          50.250  
G22  23949718.676   125856627.364        6899.261          40.500  
R23  20362665.259   108926546.582        6076.976          39.250  
R21  23388979.184   125159177.919        -234.752          39.250  
G20  23312486.841   122507945.089          73.653          41.250  
G14  24411568.741   128283660.535        6493.166          40.250  
E 7  24896943.387   130834316.187        3294.233          50.500  
R 6  21482160.751   114632929.733         342.249          38.000  
E20  49741501.346   261393356.846        5921.562          42.500  
G 1  22409271.685   117761520.694        6323.653          41.500  
R22  19589015.817   104567497.694        2092.150          52.500  
R 7  19712324.639   105521617.494        4298.099          52.750  
G11  21506197.615   113015839.509        6137.876          38.500  
> 2018  9 12 11 16 58.0000000  0 19                     
G32  23299579.729   122440112.781        5879.472          45.750  
G18  20437995.674   107402391.612        5299.449          49.250  
G 8  20300567.833   106680204.666        2917.775          53.000  
E26  22962082.102   120666554.264        1519.633          50.500  
G10  21415035.852   112536773.353        1425.646          48.250  
R 8  21724680.260   116334674.845        7576.609          49.000  
G27  21342601.887   112156128.805         749.904          50.250  
G22  23948405.824   125849728.157        6899.099          40.750  
R23  20361529.319   108920470.020        6076.205          39.500  
R21  23389022.964   125159412.906        -235.216          39.500  
G20  23312472.860   122507871.573          73.207          41.250  
G14  24410333.151   128277167.400        6492.896          40.000  
E 7  24896316.587   130831022.253        3293.555          50.500  
R 6  21482096.781   114632587.929         341.249          37.750  
E20  49740374.538   261387435.473        5921.036          42.750  
G 1  22408068.355   117755197.140        6323.296          41.250  
R22  19588623.961   104565405.887        2091.373          52.500  
R 7  19711521.806   105517319.904        4296.922          52.750  
G11  21505029.632   113009701.823        6137.326          38.750  
> 2018  9 12 11 16 59.0000000  0 19                     
G32  23298460.949   122434233.459        5879.068          45.750  
G18  20436987.253   107397092.276        5299.122          49.250  
G 8  20300012.627   106677287.029        2917.313          53.000  
E26  22961792.935   120665034.623        1519.491          50.500  
G10  21414764.575   112535347.795        1425.154          48.250  
R 8  21723265.389   116327098.233        7576.373          49.000  
G27  21342459.192   112155379.006         749.546          50.500  
G22  23947093.013   125842829.165        6898.889          41.000  
R23  20360393.459   108914393.820        6075.961          39.500  
R21  23389066.792   125159648.118        -235.537          39.000  
G20  23312458.927   122507798.317          73.185          41.250  
G14  24409097.585   128270674.442        6492.791          40.000  
E 7  24895689.887   130827728.849        3293.124          50.500  
R 6  21482032.929   114632246.747         340.866          38.000  
E20  49739247.793   261381514.413        5920.879          42.750  
G 1  22406865.072   117748873.868        6323.076          41.250  
R22  19588232.219   104563314.654        2090.943          52.500  
R 7  19710719.146   105513023.257        4296.130          52.750  
G11  21503861.750   113003564.507        6137.270          38.750  
> 2018  9 12 11 17  0.0000000  0 19                     
G32  23297342.247   122428354.560        5878.701          45.750  
G18  20435978.917   107391793.406        5298.665          49.250  
G 8  20299457.538   106674369.994        2916.772          53.000  
E26  22961503.809   120663515.198        1519.382          50.500  
G10  21414493.395   112533922.756        1424.848          48.500  
R 8  21721850.615   116319522.058        7576.032          49.000  
G27  21342316.575   112154629.647         749.181          50.500  
G22  23945780.235   125835930.379        6898.745          40.750  
R23  20359257.745   108908317.974        6075.641          39.250  
R21  23389110.672   125159883.490        -235.477          39.250  
G20  23312445.050   122507725.341          72.896          41.250  
G14  24407862.032   128264181.631        6492.837          40.250  
E 7  24895063.292   130824435.966        3292.624          50.500  
R 6  21481969.178   114631906.216         340.293          38.000  
E20  49738121.109   261375593.678        5920.596          42.750  
G 1  22405661.837   117742550.862        6322.858          41.500  
R22  19587840.579   104561223.967        2090.469          52.500  
R 7  19709916.643   105508727.507        4295.387          52.750  
G11  21502693.952   112997427.581        6136.788          38.750  
> 2018  9 12 11 17  1.0000000  0 19                     
G32  23296223.594   122422475.949        5878.537          46.000  
G18  20434970.637   107386494.853        5298.449          49.500  
G 8  20298902.534   106671453.421        2916.368          53.000  
E26  22961214.696   120661995.862        1519.315          50.500  
G10  21414222.295   112532498.111        1424.505          48.500  
R 8  21720435.889   116311946.176        7575.781          49.000  
G27  21342174.014   112153880.577         748.926          50.500  
G22  23944467.463   125829031.640        6898.714          40.750  
R23  20358122.040   108902242.344        6075.625          39.500  
R21  23389154.528   125160118.878        -235.482          39.500  
G20  23312431.202   122507652.483          72.898          41.250  
G14  24406626.482   128257688.846        6492.915          40.000  
E 7  24894436.767   130821143.458        3292.323          50.500  
R 6  21481905.505   114631566.184         339.916          37.750  
E20  49736994.458   261369673.106        5920.409          42.500  
G 1  22404458.631   117736228.003        6322.775          41.250  
R22  19587449.023   104559133.689        2090.129          52.500  
R 7  19709114.279   105504432.526        4294.592          53.000  
G11  21501526.195   112991290.849        6136.631          38.750  
> 2018  9 12 11 17  2.0000000  0 19                     
G32  23295105.069   122416597.913        5877.792          46.000  
G18  20433962.471   107381196.899        5297.686          49.250  
G 8  20298347.671   106668537.564        2915.531          53.000  
E26  22960925.655   120660476.880        1518.786          50.250  
G10  21413951.316   112531074.118        1423.670          48.500  
R 8  21719021.264   116304370.840        7575.048          49.000  
G27  21342031.567   112153132.080         748.187          50.500  
G22  23943154.757   125822133.225        6898.323          41.000  
R23  20356986.503   108896167.205        6074.955          39.250  
R21  23389198.486   125160354.649        -235.995          39.500  
G20  23312417.438   122507580.012          72.258          41.500  
G14  24405390.994   128251196.347        6492.431          40.000  
E 7  24893810.359   130817851.589        3291.581          50.250  
R 6  21481841.960   114631226.938         338.737          37.750  
E20  49735867.891   261363752.967        5919.990          42.500  
G 1  22403255.492   117729905.528        6322.292          41.500  
R22  19587057.603   104557044.087        2089.295          52.500  
R 7  19708312.119   105500138.611        4293.402          52.750  
G11  21500358.559   112985154.615        6136.037          38.750  
> 2018  9 12 11 17  3.0000000  0 19                     
G32  23293986.597   122410720.251        5877.516          46.000  
G18  20432954.381   107375899.363        5297.341          49.250  
G 8  20297792.912   106665622.267        2915.042          53.000  
E26  22960636.649   120658958.085        1518.773          50.250  
G10  21413680.434   112529650.609        1423.350          48.500  
R 8  21717606.697   116296795.857        7574.822          49.000  
G27  21341889.190   112152383.972         747.949          50.500  
G22  23941842.092   125815234.960        6898.202          41.000  
R23  20355850.995   108890092.392        6074.800          39.500  
R21  23389242.467   125160590.544        -235.861          39.750  
G20  23312403.719   122507507.773          72.242          41.500  
G14  24404155.545   128244703.978        6492.322          39.750  
E 7  24893184.044   130814560.209        3291.208          50.250  
R 6  21481778.474   114630888.288         338.250          37.750  
E20  49734741.379   261357833.119        5919.807          42.500  
G 1  22402052.418   117723583.307        6322.151          41.500  
R22  19586666.280   104554955.001        2088.884          52.750  
R 7  19707510.137   105495845.635        4292.506          52.750  
G11  21499190.996   112979018.728        6135.665          38.750  
> 2018  9 12 11 17  4.0000000  0 19                     
G32  23292868.187   122404842.958        5877.320          46.000  
G18  20431946.369   107370602.217        5297.110          49.250  
G 8  20297238.256   106662707.509        2914.671          53.000  
E26  22960347.668   120657439.434        1518.797          50.250  
G10  21413409.643   112528227.556        1423.007          48.250  
R 8  21716192.186   116289221.185        7574.726          49.000  
G27  21341746.889   112151636.239         747.703          50.500  
G22  23940529.445   125808336.809        6898.385          41.250  
R23  20354715.496   108884017.865        6074.672          39.500  
R21  23389286.512   125160826.554        -235.823          40.000  
G20  23312390.045   122507435.721          72.181          41.750  
G14  24402920.100   128238211.674        6492.590          40.000  
E 7  24892557.813   130811269.277        3290.898          50.250  
R 6  21481715.092   114630550.225         337.994          38.000  
E20  49733614.910   261351913.511        5919.708          42.750  
G 1  22400849.383   117717261.267        6322.128          41.500  
R22  19586275.048   104552866.403        2088.533          52.750  
R 7  19706708.330   105491553.535        4291.870          52.750  
G11  21498023.484   112972883.090        6135.655          38.750  
> 2018  9 12 11 17  5.0000000  0 19                     
G32  23291749.865   122398966.116        5876.419          45.750  
G18  20430938.445   107365305.548        5296.280          49.250  
G 8  20296683.713   106659793.358        2913.733          53.000  
E26  22960058.748   120655921.040        1518.136          50.250  
G10  21413138.957   112526805.045        1422.151          48.250  
R 8  21714777.758   116281646.912        7573.910          49.000  
G27  21341604.676   112150888.961         746.872          50.250  
G22  23939216.850   125801438.880        6897.652          41.250  
R23  20353580.046   108877943.723        6073.782          40.000  
R21  23389330.601   125161062.722        -236.349          40.250  
G20  23312376.417   122507363.949          71.568          41.750  
G14  24401684.697   128231719.563        6491.881          40.000  
E 7  24891931.680   130807978.874        3289.955          50.250  
R 6  21481651.815   114630212.823         336.979          38.000  
E20  49732488.510   261345994.243        5918.896          42.500  
G 1  22399646.411   117710939.513        6321.492          41.500  
R22  19585883.922   104550778.372        2087.636          52.750  
R 7  19705906.704   105487262.377        4290.553          53.000  
G11  21496856.044   112966747.851        6134.940          38.750  
> 2018  9 12 11 17  6.0000000  0 19                     
G32  23290631.647   122393089.785        5876.281          45.750  
G18  20429930.625   107360009.436        5296.064          49.250  
G 8  20296129.300   106656879.901        2913.389          53.000  
E26  22959769.869   120654402.949        1518.186          50.500  
G10  21412868.385   112525383.140        1421.886          48.250  
R 8  21713363.422   116274073.128        7573.866          49.000  
G27  21341462.570   112150142.206         746.701          50.250  
G22  23937904.297   125794541.216        6897.894          41.500  
R23  20352444.640   108871870.041        6073.705          40.250  
R21  23389374.753   125161299.195        -236.258          39.750  
G20  23312362.856   122507292.528          71.524          41.500  
G14  24400449.343   128225227.694        6491.937          40.000  
E 7  24891305.663   130804689.074        3289.756          50.500  
R 6  21481588.661   114629876.144         336.498          38.000  
E20  49731362.190   261340075.385        5918.894          42.750  
G 1  22398443.505   117704618.121        6321.440          41.250  
R22  19585492.922   104548691.001        2087.328          52.500  
R 7  19705105.268   105482972.232        4289.913          53.000  
G11  21495688.672   112960613.066        6134.804          38.750  
> 2018  9 12 11 17  7.0000000  0 19                     
G32  23289513.483   122387213.752        5876.002          45.750  
G18  20428922.867   107354713.665        5295.670          49.250  
G 8  20295574.969   106653966.915        2912.845          53.000  
E26  22959481.014   120652884.947        1518.028          50.500  
G10  21412597.891   112523961.623        1421.396          48.250  
R 8  21711949.134   116266499.633        7573.424          49.000  
G27  21341320.524   112149395.751         746.311          50.250  
G22  23936591.755   125787643.622        6897.680          41.500  
R23  20351309.279   108865796.591        6073.385          40.250  
R21  23389418.917   125161535.781        -236.612          40.000  
G20  23312349.309   122507221.236          71.362          41.500  
G14  24399213.989   128218735.839        6492.022          39.750  
E 7  24890679.710   130801399.652        3289.345          50.500  
R 6  21481525.595   114629539.944         336.177          38.000  
E20  49730235.904   261334156.693        5918.672          42.750  
G 1  22397240.616   117698296.854        6321.220          41.250  
R22  19585101.994   104546604.050        2086.848          52.500  
R 7  19704303.979   105478682.878        4289.064          53.000  
G11  21494521.332   112954478.481        6134.699          38.750  
> 2018  9 12 11 17  8.0000000  0 19                     
G32  23288395.409   122381338.127        5875.269          45.750  
G18  20427915.192   107349418.323        5295.042          49.250  
G 8  20295020.742   106651054.482        2912.063          53.000  
E26  22959192.188   120651367.126        1517.634          50.250  
G10  21412327.487   112522540.576        1420.639          48.250  
R 8  21710534.912   116258926.517        7572.797          49.000  
G27  21341178.551   112148649.682         745.773          50.250  
G22  23935279.249   125780746.171        6897.292          41.500  
R23  20350173.990   108859723.454        6072.943          40.000  
R21  23389463.086   125161772.510        -236.967          39.750  
G20  23312335.789   122507150.159          70.866          41.500  
G14  24397978.663   128212244.108        6491.763          39.750  
E 7  24890053.857   130798110.711        3288.640          50.500  
R 6  21481462.665   114629204.326         335.119          38.000  
E20  49729109.662   261328238.261        5918.261          43.000  
G 1  22396037.785   117691975.826        6320.716          41.250  
R22  19584711.160   104544517.604        2086.097          52.750  
R 7  19703502.867   105474394.416        4287.885          52.750  
G11  21493354.045   112948344.230        6134.038          38.750  
> 2018  9 12 11 17  9.0000000  0 19                     
G32  23287277.424   122375463.011        5874.667          45.750  
G18  20426907.623   107344123.543        5294.245          49.000  
G 8  20294466.651   106648142.750        2911.145          53.000  
E26  22958903.428   120649849.634        1517.139          50.250  
G10  21412057.204   112521120.160        1419.920          48.250  
R 8  21709120.787   116251353.941        7572.041          49.000  
G27  21341036.687   112147904.159         745.061          50.000  
G22  23933966.792   125773849.023        6896.844          41.250  
R23  20349038.787   108853650.788        6072.260          40.000  
R21  23389507.303   125162009.491        -237.317          40.250  
G20  23312322.312   122507079.438          70.413          41.500  
G14  24396743.390   128205752.633        6491.137          39.750  
E 7  24889428.121   130794822.384        3287.764          50.250  
R 6  21481399.892   114628869.422         334.236          38.250  
E20  49727983.502   261322320.271        5917.489          42.500  
G 1  22394834.997   117685655.158        6320.267          41.000  
R22  19584320.450   104542431.805        2085.239          52.750  
R 7  19702701.938   105470106.968        4286.712          53.000  
G11  21492186.833   112942210.449        6133.381          38.750  
> 2018  9 12 11 17 10.0000000  0 19                     
G32  23286159.533   122369588.341        5874.452          45.500  
G18  20425900.141   107338829.216        5294.147          49.000  
G 8  20293912.674   106645231.620        2910.811          53.000  
E26  22958614.699   120648332.356        1517.207          50.250  
G10  21411787.022   112519700.278        1419.611          48.250  
R 8  21707706.729   116243781.773        7571.975          49.000  
G27  21340894.906   112147159.068         744.851          50.250  
G22  23932654.365   125766952.061        6896.758          41.000  
R23  20347903.702   108847578.476        6072.032          39.750  
R21  23389551.560   125162246.646        -237.152          40.000  
G20  23312308.880   122507008.986          70.325          41.500  
G14  24395508.149   128199261.322        6491.176          39.500  
E 7  24888802.484   130791534.572        3287.510          50.250  
R 6  21481337.247   114628535.137         334.098          38.000  
E20  49726857.396   261316402.584        5917.395          42.750  
G 1  22393632.262   117679334.745        6320.284          41.250  
R22  19583929.832   104540346.551        2084.959          52.750  
R 7  19701901.188   105465820.448        4286.032          52.750  
G11  21491019.683   112936077.013        6133.249          39.000  
> 2018  9 12 11 17 11.0000000  0 19                     
G32  23285041.691   122363713.968        5874.179          45.750  
G18  20424892.722   107333535.222        5293.772          49.250  
G 8  20293358.794   106642320.953        2910.388          53.000  
E26  22958325.998   120646815.184        1517.038          50.250  
G10  21411516.916   112518280.774        1419.232          48.250  
R 8  21706292.743   116236209.880        7571.649          48.750  
G27  21340753.186   112146414.289         744.560          50.250  
G22  23931341.955   125760055.148        6896.705          41.500  
R23  20346768.662   108841506.382        6071.821          39.750  
R21  23389595.832   125162483.848        -237.335          40.000  
G20  23312295.469   122506938.678          70.118          41.500  
G14  24394272.892   128192770.037        6491.133          39.500  
E 7  24888176.916   130788247.145        3287.134          50.250  
R 6  21481274.706   114628201.355         333.480          38.250  
E20  49725731.319   261310485.067        5917.296          42.500  
G 1  22392429.567   117673014.508        6320.035          41.000  
R22  19583539.279   104538261.716        2084.539          52.750  
R 7  19701100.596   105461534.744        4285.230          52.750  
G11  21489852.586   112929943.807        6133.026          39.000  
> 2018  9 12 11 17 12.0000000  0 19                     
G32  23283923.936   122357840.077        5873.668          45.500  
G18  20423885.398   107328241.732        5293.186          49.000  
G 8  20292805.040   106639410.942        2909.640          53.000  
E26  22958037.340   120645298.272        1516.731          50.250  
G10  21411246.918   112516861.844        1418.572          48.250  
R 8  21704878.832   116228638.409        7571.248          48.750  
G27  21340611.560   112145669.985         744.031          50.250  
G22  23930029.612   125753158.493        6896.531          41.250  
R23  20345633.674   108835434.711        6071.274          39.750  
R21  23389640.155   125162721.315        -237.762          40.000  
G20  23312282.132   122506868.655          69.886          41.250  
G14  24393037.676   128186278.951        6490.951          40.000  
E 7  24887551.459   130784960.276        3286.551          50.250  
R 6  21481212.322   114627868.253         332.654          38.250  
E20  49724605.313   261304567.916        5916.865          42.750  
G 1  22391226.910   117666694.569        6319.753          41.000  
R22  19583148.826   104536177.473        2083.885          52.750  
R 7  19700300.207   105457250.053        4284.123          52.750  
G11  21488685.554   112923811.020        6132.524          38.750  
> 2018  9 12 11 17 13.0000000  0 19                     
G32  23282806.263   122351966.572        5873.168          45.500  
G18  20422878.164   107322948.669        5292.705          49.250  
G 8  20292251.397   106636501.488        2909.017          53.000  
E26  22957748.719   120643781.550        1516.472          50.500  
G10  21410977.012   112515443.387        1418.131          48.250  
R 8  21703464.987   116221067.272        7570.864          48.750  
G27  21340470.012   112144926.075         743.568          50.250  
G22  23928717.287   125746261.985        6896.355          41.250  
R23  20344498.676   108829363.347        6070.998          39.750  
R21  23389684.497   125162958.937        -237.909          40.000  
G20  23312268.836   122506798.850          69.650          41.500  
G14  24391802.460   128179787.967        6490.786          39.500  
E 7  24886926.097   130781673.888        3286.008          50.250  
R 6  21481150.070   114627535.722         332.146          38.000  
E20  49723479.368   261298651.053        5916.580          43.000  
G 1  22390024.297   117660374.861        6319.499          41.000  
R22  19582758.459   104534093.735        2083.316          52.750  
R 7  19699499.965   105452966.234        4283.232          52.500  
G11  21487518.590   112917678.543        6132.234          38.750  
> 2018  9 12 11 17 14.0000000  0 19                     
G32  23281688.642   122346093.363        5872.926          45.500  
G18  20421870.994   107317655.920        5292.342          49.000  
G 8  20291697.842   106633592.492        2908.549          53.000  
E26  22957460.113   120642264.899        1516.381          50.500  
G10  21410707.174   112514025.326        1417.621          48.000  
R 8  21702051.189   116213496.385        7570.521          48.750  
G27  21340328.515   112144182.449         743.240          50.250  
G22  23927404.955   125739365.533        6896.037          41.250  
R23  20343363.715   108823292.209        6070.686          39.750  
R21  23389728.831   125163196.568        -237.693          39.500  
G20  23312255.573   122506729.173          69.461          41.500  
G14  24390567.256   128173297.016        6490.713          39.750  
E 7  24886300.798   130778387.874        3285.578          50.250  
R 6  21481087.902   114627203.681         331.477          38.250  
E20  49722353.457   261292734.347        5916.299          43.000  
G 1  22388821.715   117654055.288        6319.256          41.000  
R22  19582368.163   104532010.404        2082.883          52.750  
R 7  19698699.861   105448683.193        4282.416          52.750  
G11  21486351.641   112911546.284        6131.964          38.750  
> 2018  9 12 11 17 15.0000000  0 19                     
G32  23280571.102   122340220.577        5872.677          45.750  
G18  20420863.914   107312363.638        5292.148          49.000  
G 8  20291144.392   106630684.076        2908.261          53.000  
E26  22957171.543   120640748.468        1516.461          50.250  
G10  21410437.430   112512607.767        1417.407          48.250  
R 8  21700637.478   116205925.923        7570.385          48.750  
G27  21340187.103   112143439.255         743.101          50.250  
G22  23926092.649   125732469.259        6896.292          41.250  
R23  20342228.778   108817221.434        6070.787          40.000  
R21  23389773.206   125163434.351        -237.668          39.000  
G20  23312242.359   122506659.746          69.433          41.500  
G14  24389332.102   128166806.213        6490.871          39.500  
E 7  24885675.598   130775102.368        3285.353          50.250  
R 6  21481025.823   114626872.288         331.119          37.750  
E20  49721227.607   261286817.959        5916.280          43.000  
G 1  22387619.166   117647735.964        6319.257          41.000  
R22  19581977.967   104529927.609        2082.672          52.750  
R 7  19697899.926   105444401.047        4281.839          52.500  
G11  21485184.781   112905414.390        6131.851          39.000  
> 2018  9 12 11 17 16.0000000  0 19                     
G32  23279453.636   122334348.185        5872.058          45.750  
G18  20419856.917   107307071.796        5291.521          49.250  
G 8  20290591.048   106627776.226        2907.498          53.000  
E26  22956883.013   120639232.229        1516.006          50.250  
G10  21410167.781   112511190.688        1416.749          48.250  
R 8  21699223.829   116198355.861        7569.788          48.750  
G27  21340045.766   112142696.462         742.473          50.250  
G22  23924780.371   125725573.156        6895.791          41.500  
R23  20341093.939   108811150.975        6070.332          40.000  
R21  23389817.642   125163672.328        -238.238          39.250  
G20  23312229.206   122506590.571          68.984          41.750  
G14  24388096.999   128160315.532        6490.607          39.500  
E 7  24885050.486   130771817.341        3284.733          50.250  
R 6  21480963.853   114626541.472         330.465          38.000  
E20  49720101.810   261280901.848        5915.888          42.750  
G 1  22386416.662   117641416.882        6318.794          41.000  
R22  19581587.868   104527845.325        2081.946          52.750  
R 7  19697100.154   105440119.819        4280.682          52.500  
G11  21484017.989   112899282.828        6131.284          39.000  
> 2018  9 12 11 17 17.0000000  0 19                     
G32  23278336.262   122328476.305        5871.671          45.750  
G18  20418850.027   107301780.479        5291.101          49.000  
G 8  20290037.832   106624869.066        2906.884          53.000  
E26  22956594.531   120637716.292        1515.842          50.500  
G10  21409898.247   112509774.220        1416.233          48.250  
R 8  21697810.293   116190786.319        7569.326          48.750  
G27  21339904.529   112141954.192         742.101          50.250  
G22  23923468.136   125718677.311        6895.766          41.250  
R23  20339959.156   108805080.991        6069.945          40.000  
R21  23389862.140   125163910.572        -238.323          39.250  
G20  23312216.125   122506521.735          68.765          41.750  
G14  24386861.948   128153825.096        6490.340          39.500  
E 7  24884425.488   130768532.915        3284.192          50.250  
R 6  21480902.010   114626211.398         329.861          38.000  
E20  49718976.085   261274986.104        5915.554          43.000  
G 1  22385214.230   117635098.151        6318.714          41.000  
R22  19581197.891   104525763.679        2081.378          52.750  
R 7  19696300.564   105435839.623        4279.710          52.500  
G11  21482851.278   112893151.696        6130.937          39.000  
> 2018  9 12 11 17 18.0000000  0 19                     
G32  23277218.972   122322604.816        5871.208          46.000  
G18  20417843.225   107296489.587        5290.620          49.250  
G 8  20289484.717   106621962.459        2906.263          53.000  
E26  22956306.086   120636200.528        1515.619          50.250  
G10  21409628.800   112508358.223        1415.716          48.250  
R 8  21696396.819   116183217.130        7568.954          48.500  
G27  21339763.356   112141212.299         741.641          50.250  
G22  23922155.940   125711781.622        6895.443          41.750  
R23  20338824.489   108799011.317        6069.445          40.000  
R21  23389906.700   125164148.943        -238.560          39.500  
G20  23312203.086   122506453.124          68.378          41.750  
G14  24385626.912   128147334.764        6490.146          39.500  
E 7  24883800.575   130765248.950        3283.667          50.250  
R 6  21480840.290   114625881.922         329.057          37.500  
E20  49717850.418   261269070.663        5915.170          43.000  
G 1  22384011.863   117628779.640        6318.272          41.000  
R22  19580808.007   104523682.525        2080.829          52.750  
R 7  19695501.134   105431560.300        4278.859          52.500  
G11  21481684.654   112887020.885        6130.577          39.000  
> 2018  9 12 11 17 19.0000000  0 19                     
G32  23276101.743   122316733.694        5870.826          46.000  
G18  20416836.496   107291199.096        5290.278          49.250  
G 8  20288931.701   106619056.394        2905.779          53.250  
E26  22956017.665   120634684.923        1515.558          50.500  
G10  21409359.438   112506942.685        1415.301          48.250  
R 8  21694983.394   116175648.256        7568.715          48.750  
G27  21339622.257   112140470.789         741.320          50.250  
G22  23920843.765   125704886.059        6895.594          41.500  
R23  20337689.883   108792941.923        6069.183          40.250  
R21  23389951.263   125164387.438        -238.466          39.500  
G20  23312190.083   122506384.695          68.382          41.750  
G14  24384391.888   128140844.515        6490.270          39.750  
E 7  24883175.752   130761965.445        3283.238          50.250  
R 6  21480778.685   114625552.997         328.687          37.750  
E20  49716724.795   261263155.458        5914.989          43.000  
G 1  22382809.536   117622461.318        6318.250          41.000  
R22  19580418.220   104521601.861        2080.396          52.500  
R 7  19694701.851   105427281.834        4278.008          52.500  
G11  21480518.066   112880890.358        6130.307          39.250  
> 2018  9 12 11 17 20.0000000  0 19                     
G32  23274984.579   122310862.908        5870.302          46.000  
G18  20415829.836   107285908.983        5289.598          49.250  
G 8  20288378.786   106616150.860        2904.951          53.250  
E26  22955729.271   120633169.447        1515.110          50.500  
G10  21409090.155   112505527.573        1414.537          48.500  
R 8  21693570.020   116168079.673        7568.040          48.750  
G27  21339481.227   112139729.620         740.618          50.250  
G22  23919531.599   125697990.601        6895.124          41.500  
R23  20336555.301   108786872.799        6068.640          40.500  
R21  23389995.865   125164626.043        -238.991          39.750  
G20  23312177.107   122506316.436          67.822          41.750  
G14  24383156.861   128134354.344        6489.839          39.750  
E 7  24882551.004   130758682.363        3282.496          50.500  
R 6  21480717.157   114625224.633         327.608          38.000  
E20  49715599.212   261257240.463        5914.491          43.250  
G 1  22381607.232   117616143.164        6317.848          41.000  
R22  19580028.518   104519521.646        2079.659          52.500  
R 7  19693902.741   105423004.239        4276.796          52.500  
G11  21479351.529   112874760.109        6129.724          39.250  
> 2018  9 12 11 17 21.0000000  0 19                     
G32  23273867.514   122304992.616        5870.116          46.000  
G18  20414823.271   107280619.364        5289.442          49.250  
G 8  20287825.993   106613245.946        2904.684          53.250  
E26  22955440.927   120631654.243        1515.124          50.500  
G10  21408820.986   112504113.032        1414.340          48.500  
R 8  21692156.712   116160511.539        7567.958          48.750  
G27  21339340.288   112138988.925         740.484          50.250  
G22  23918219.477   125691095.383        6895.149          41.500  
R23  20335420.821   108780804.075        6068.630          40.750  
R21  23390040.520   125164864.851        -238.682          40.000  
G20  23312164.178   122506248.488          67.827          42.000  
G14  24381921.880   128127864.382        6489.931          39.750  
E 7  24881926.357   130755399.834        3282.325          50.500  
R 6  21480655.743   114624896.933         327.436          38.000  
E20  49714473.698   261251325.832        5914.491          43.000  
G 1  22380405.020   117609825.367        6317.608          41.250  
R22  19579638.924   104517442.030        2079.401          52.500  
R 7  19693103.818   105418727.638        4276.175          52.500  
G11  21478185.062   112868630.268        6129.631          39.250  
> 2018  9 12 11 17 22.0000000  0 19                     
G32  23272750.541   122299122.821        5869.563          46.000  
G18  20413816.808   107275330.288        5288.818          49.000  
G 8  20287273.332   106610341.727        2903.917          53.250  
E26  22955152.643   120630139.342        1514.798          50.250  
G10  21408551.936   112502699.093        1413.701          48.500  
R 8  21690743.492   116152943.911        7567.441          48.500  
G27  21339199.451   112138248.751         739.950          50.250  
G22  23916907.400   125684200.440        6894.901          41.500  
R23  20334286.464   108774735.793        6068.104          41.000  
R21  23390085.257   125165103.936        -239.149          40.250  
G20  23312151.323   122506180.879          67.397          42.000  
G14  24380686.949   128121374.645        6489.725          39.750  
E 7  24881301.829   130752117.906        3281.712          50.250  
R 6  21480594.458   114624569.984         326.544          37.750  
E20  49713348.262   261245411.605        5914.103          43.000  
G 1  22379202.838   117603507.888        6317.380          41.250  
R22  19579249.459   104515363.052        2078.723          52.750  
R 7  19692305.078   105414452.043        4275.170          52.500  
G11  21477018.669   112862500.849        6129.130          39.250  
> 2018  9 12 11 17 23.0000000  0 19                     
G32  23271633.630   122293253.343        5869.217          46.000  
G18  20412810.404   107270041.542        5288.526          49.250  
G 8  20286720.769   106607437.990        2903.450          53.250  
E26  22954864.376   120628624.540        1514.691          50.250  
G10  21408282.957   112501285.550        1413.270          48.500  
R 8  21689330.335   116145376.571        7567.151          48.750  
G27  21339058.665   112137508.875         739.644          50.250  
G22  23915595.323   125677305.562        6894.822          41.750  
R23  20333152.154   108768667.730        6067.880          41.000  
R21  23390130.053   125165343.106        -239.132          40.250  
G20  23312138.489   122506113.387          67.376          41.750  
G14  24379452.017   128114884.957        6489.610          39.750  
E 7  24880677.374   130748836.368        3281.299          50.250  
R 6  21480533.290   114624243.515         326.028          38.000  
E20  49712222.869   261239497.561        5913.946          42.750  
G 1  22378000.690   117597190.582        6317.132          41.000  
R22  19578860.075   104513284.508        2078.287          52.750  
R 7  19691506.487   105410177.241        4274.368          52.500  
G11  21475852.333   112856371.672        6129.056          39.250  
> 2018  9 12 11 17 24.0000000  0 19                     
G32  23270516.784   122287384.229        5868.895          46.000  
G18  20411804.074   107264753.210        5288.142          49.250  
G 8  20286168.313   106604534.802        2902.917          53.250  
E26  22954576.137   120627109.896        1514.615          50.250  
G10  21408014.066   112499872.459        1412.871          48.500  
R 8  21687917.254   116137809.592        7566.847          48.750  
G27  21338917.955   112136769.385         739.318          50.250  
G22  23914283.268   125670410.811        6894.651          41.750  
R23  20332017.955   108762599.994        6067.535          41.250  
R21  23390174.894   125165582.409        -239.440          40.000  
G20  23312125.684   122506046.101          67.167          41.750  
G14  24378217.108   128108395.353        6489.583          40.000  
E 7  24880053.010   130745555.281        3280.930          50.250  
R 6  21480472.247   114623917.635         325.639          37.750  
E20  49711097.526   261233583.772        5913.657          42.750  
G 1  22376798.578   117590873.465        6316.990          41.250  
R22  19578470.778   104511206.455        2077.849          52.750  
R 7  19690708.057   105405903.303        4273.555          52.500  
G11  21474686.021   112850242.800        6128.688          39.250  
> 2018  9 12 11 17 25.0000000  0 19                     
G32  23269400.011   122281515.492        5868.368          46.000  
G18  20410797.817   107259465.291        5287.618          49.250  
G 8  20285615.961   106601632.144        2902.293          53.250  
E26  22954287.939   120625595.425        1514.254          50.250  
G10  21407745.267   112498459.836        1412.280          48.500  
R 8  21686504.240   116130242.955        7566.358          48.750  
G27  21338777.323   112136030.269         738.765          50.250  
G22  23912971.246   125663516.211        6894.429          41.750  
R23  20330883.809   108756532.544        6067.140          41.750  
R21  23390219.739   125165821.805        -239.511          40.500  
G20  23312112.917   122505979.006          66.908          41.750  
G14  24376982.207   128101905.860        6489.292          40.000  
E 7  24879428.735   130742274.657        3280.259          50.250  
R 6  21480411.331   114623592.312         324.991          38.000  
E20  49709972.227   261227670.227        5913.339          42.750  
G 1  22375596.522   117584556.567        6316.676          41.000  
R22  19578081.570   104509128.896        2077.233          52.500  
R 7  19689909.788   105401630.235        4272.502          52.500  
G11  21473519.757   112844114.214        6128.466          39.500  
> 2018  9 12 11 17 26.0000000  0 19                     
G32  23268283.295   122275647.100        5868.304          46.000  
G18  20409791.627   107254177.750        5287.393          49.000  
G 8  20285063.706   106598730.001        2901.925          53.250  
E26  22953999.763   120624081.084        1514.362          50.500  
G10  21407476.548   112497047.640        1412.067          48.500  
R 8  21685091.282   116122676.632        7566.183          48.750  
G27  21338636.751   112135291.495         738.655          50.250  
G22  23911659.225   125656621.709        6894.494          41.750  
R23  20329749.683   108750465.375        6067.071          42.000  
R21  23390264.602   125166061.290        -239.405          40.750  
G20  23312100.186   122505912.076          66.912          41.750  
G14  24375747.311   128095416.427        6489.439          40.000  
E 7  24878804.538   130738994.458        3280.042          50.500  
R 6  21480350.492   114623267.519         324.626          38.000  
E20  49708846.973   261221756.929        5913.186          42.750  
G 1  22374394.513   117578239.860        6316.478          40.750  
R22  19577692.456   104507051.798        2076.931          52.500  
R 7  19689111.676   105397358.016        4271.840          52.500  
G11  21472353.546   112837985.919        6128.192          39.500  
> 2018  9 12 11 17 27.0000000  0 19                     
G32  23267166.665   122269779.169        5867.743          46.250  
G18  20408785.532   107248890.703        5286.808          49.000  
G 8  20284511.568   106595828.492        2901.236          53.250  
E26  22953711.633   120622566.992        1513.945          50.500  
G10  21407207.930   112495636.001        1411.402          48.500  
R 8  21683678.393   116115110.730        7565.709          48.750  
G27  21338496.274   112134553.185         738.153          50.250  
G22  23910347.252   125649727.436        6894.376          42.000  
R23  20328615.688   108744398.599        6066.712          42.250  
R21  23390309.494   125166301.000        -239.754          40.750  
G20  23312087.511   122505845.447          66.502          41.750  
G14  24374512.451   128088927.195        6489.222          40.000  
E 7  24878180.436   130735714.796        3279.466          50.250  
R 6  21480289.755   114622943.343         323.877          38.000  
E20  49707721.784   261215843.967        5912.770          42.750  
G 1  22373192.561   117571923.417        6316.428          41.000  
R22  19577303.444   104504975.273        2076.338          52.500  
R 7  19688313.756   105393086.763        4270.816          52.500  
G11  21471187.427   112831858.009        6127.775          39.500  
> 2018  9 12 11 17 28.0000000  0 19                     
G32  23266050.125   122263911.725        5867.282          45.750  
G18  20407779.536   107243604.171        5286.321          49.000  
G 8  20283959.546   106592927.632        2900.600          53.250  
E26  22953423.562   120621053.178        1513.730          50.500  
G10  21406939.414   112494224.931        1410.841          48.250  
R 8  21682265.594   116107545.294        7565.242          48.750  
G27  21338355.888   112133815.366         737.637          50.000  
G22  23909035.321   125642833.414        6894.009          42.000  
R23  20327481.815   108738332.248        6066.265          42.250  
R21  23390354.428   125166540.945        -240.100          41.000  
G20  23312074.900   122505779.110          66.246          41.500  
G14  24373277.631   128082438.167        6488.988          40.000  
E 7  24877556.444   130732435.711        3278.867          50.500  
R 6  21480229.162   114622619.859         323.058          37.750  
E20  49706596.667   261209931.372        5912.484          43.000  
G 1  22371990.688   117565607.334        6315.953          41.000  
R22  19576914.553   104502899.346        2075.645          52.500  
R 7  19687516.021   105388816.481        4269.831          52.750  
G11  21470021.385   112825730.499        6127.458          39.500  
> 2018  9 12 11 17 29.0000000  0 19                     
G32  23264933.672   122258044.671        5866.555          46.000  
G18  20406773.616   107238318.053        5285.721          49.000  
G 8  20283407.632   106590027.322        2899.822          53.250  
E26  22953135.527   120619539.541        1513.310          50.500  
G10  21406670.982   112492814.332        1410.217          48.250  
R 8  21680852.853   116099980.214        7564.706          48.750  
G27  21338215.576   112133077.925         737.057          50.000  
G22  23907723.422   125635939.531        6893.663          42.000  
R23  20326347.954   108732266.205        6065.552          42.500  
R21  23390399.357   125166781.057        -240.378          41.000  
G20  23312062.321   122505712.997          65.913          41.500  
G14  24372042.839   128075949.248        6488.611          40.000  
E 7  24876932.541   130729157.090        3278.174          50.500  
R 6  21480168.655   114622296.939         322.482          38.000  
E20  49705471.595   261204019.031        5911.982          42.750  
G 1  22370788.844   117559291.454        6315.502          41.000  
R22  19576525.753   104500823.918        2074.989          52.500  
R 7  19686718.470   105384547.098        4268.686          52.750  
G11  21468855.409   112819603.317        6126.915          39.250  
> 2018  9 12 11 17 30.0000000  0 19                     
G32  23263817.283   122252178.001        5866.476          46.000  
G18  20405767.777   107233032.349        5285.452          49.000  
G 8  20282855.822   106587127.568        2899.378          53.500  
E26  22952847.528   120618026.073        1513.347          50.000  
G10  21406402.643   112491404.209        1409.830          48.250  
R 8  21679440.193   116092415.506        7564.424          48.750  
G27  21338075.335   112132340.871         736.832          50.000  
G22  23906411.558   125629045.797        6893.551          42.000  
R23  20325214.162   108726200.497        6065.473          42.500  
R21  23390444.282   125167021.280        -240.331          41.250  
G20  23312049.771   122505647.101          65.691          41.750  
G14  24370808.068   128069460.446        6488.624          40.000  
E 7  24876308.725   130725878.932        3277.862          50.000  
R 6  21480108.230   114621974.594         321.898          38.000  
E20  49704346.575   261198106.975        5911.975          42.500  
G 1  22369587.036   117552975.783        6315.572          41.000  
R22  19576137.043   104498748.982        2074.653          52.750  
R 7  19685921.093   105380278.599        4267.995          52.750  
G11  21467689.497   112813476.440        6126.512          39.500  
> 2018  9 12 11 17 31.0000000  0 19                     
G32  23262700.969   122246311.710        5866.300          46.000  
G18  20404762.017   107227747.051        5285.333          49.000  
G 8  20282304.117   106584228.352        2899.184          53.250  
E26  22952559.563   120616512.768        1513.460          50.500  
G10  21406134.394   112489994.547        1409.574          48.000  
R 8  21678027.564   116084851.142        7564.423          49.000  
G27  21337935.164   112131604.200         736.751          50.000  
G22  23905099.716   125622152.188        6893.920          42.250  
R23  20324080.437   108720135.097        6065.530          42.250  
R21  23390489.200   125167261.619        -240.126          41.250  
G20  23312037.261   122505581.385          65.931          41.500  
G14  24369573.306   128062971.732        6489.049          40.000  
E 7  24875684.992   130722601.235        3277.725          50.250  
R 6  21480047.883   114621652.821         321.721          37.750  
E20  49703221.604   261192195.182        5911.872          42.750  
G 1  22368385.277   117546660.337        6315.638          40.750  
R22  19575748.420   104496674.542        2074.448          52.750  
R 7  19685123.882   105376010.956        4267.420          52.500  
G11  21466523.649   112807349.855        6126.754          39.500  
> 2018  9 12 11 17 32.0000000  0 19                     
G32  23261584.749   122240445.918        5865.745          46.000  
G18  20403756.358   107222462.287        5284.713          49.000  
G 8  20281752.538   106581329.800        2898.392          53.250  
E26  22952271.654   120614999.760        1512.991          50.500  
G10  21405866.251   112488585.466        1408.945          48.250  
R 8  21676615.039   116077287.271        7563.800          49.000  
G27  21337795.085   112130868.031         736.068          50.000  
G22  23903787.932   125615258.857        6893.353          42.250  
R23  20322946.787   108714070.135        6064.872          42.250  
R21  23390534.204   125167502.246        -240.600          41.500  
G20  23312024.819   122505516.017          65.327          41.750  
G14  24368338.596   128056483.253        6488.564          40.000  
E 7  24875061.372   130719324.119        3277.004          50.000  
R 6  21479987.635   114621331.754         320.969          37.750  
E20  49702096.701   261186283.747        5911.417          43.000  
G 1  22367183.572   117540345.235        6315.100          40.750  
R22  19575359.912   104494600.719        2073.653          52.500  
R 7  19684326.859   105371744.312        4266.313          52.500  
G11  21465357.882   112801223.718        6126.198          39.750  
> 2018  9 12 11 17 33.0000000  0 19                     
G32  23260468.631   122234580.669        5865.023          46.000  
G18  20402750.814   107217178.117        5283.915          49.250  
G 8  20281201.091   106578431.957        2897.542          53.500  
E26  22951983.814   120613487.091        1512.545          50.500  
G10  21405598.236   112487177.024        1408.181          48.250  
R 8  21675202.607   116069723.913        7563.086          49.250  
G27  21337655.103   112130132.401         735.390          50.250  
G22  23902476.217   125608365.842        6892.860          42.250  
R23  20321813.169   108708005.642        6064.365          42.000  
R21  23390579.218   125167743.163        -241.096          41.250  
G20  23312012.455   122505451.007          64.840          41.500  
G14  24367103.917   128049995.059        6487.989          40.000  
E 7  24874437.874   130716047.638        3276.209          50.250  
R 6  21479927.544   114621011.465         319.943          37.750  
E20  49700971.880   261180372.741        5910.848          43.000  
G 1  22365981.914   117534030.509        6314.536          40.750  
R22  19574971.534   104492527.564        2072.831          52.500  
R 7  19683530.038   105367478.741        4265.019          52.500  
G11  21464192.200   112795098.055        6125.405          39.750  
> 2018  9 12 11 17 34.0000000  0 19                     
G32  23259352.613   122228715.970        5864.730          46.250  
G18  20401745.372   107211894.488        5283.606          49.250  
G 8  20280649.785   106575534.822        2896.996          53.500  
E26  22951696.031   120611974.741        1512.396          50.000  
G10  21405330.346   112485769.214        1407.640          48.250  
R 8  21673790.285   116062161.075        7562.854          49.250  
G27  21337515.224   112129397.311         735.037          50.250  
G22  23901164.558   125601473.118        6892.684          42.500  
R23  20320679.645   108701941.629        6063.979          42.000  
R21  23390624.283   125167984.370        -241.166          41.250  
G20  23312000.155   122505386.361          64.723          41.750  
G14  24365869.292   128043507.108        6488.035          40.000  
E 7  24873814.489   130712771.774        3275.803          49.750  
R 6  21479867.610   114620691.932         319.309          37.500  
E20  49699847.142   261174462.173        5910.604          42.500  
G 1  22364780.325   117527716.152        6314.506          40.750  
R22  19574583.276   104490455.049        2072.428          52.500  
R 7  19682733.407   105363214.228        4264.227          52.750  
G11  21463026.615   112788972.854        6125.141          39.750  
> 2018  9 12 11 17 35.0000000  0 19                     
G32  23258236.645   122222851.538        5864.198          46.000  
G18  20400739.996   107206611.163        5283.178          49.250  
G 8  20280098.558   106572638.107        2896.476          53.250  
E26  22951408.260   120610462.455        1512.235          50.000  
G10  21405062.513   112484361.737        1407.309          48.250  
R 8  21672378.019   116054598.490        7562.455          49.250  
G27  21337375.402   112128662.495         734.649          50.250  
G22  23899852.890   125594580.414        6892.827          42.500  
R23  20319546.111   108695877.790        6063.782          42.000  
R21  23390669.353   125168225.597        -241.190          41.250  
G20  23311987.884   122505321.811          64.492          41.750  
G14  24364634.688   128037019.165        6487.911          39.750  
E 7  24873191.171   130709496.258        3275.329          49.750  
R 6  21479807.776   114620372.851         318.681          37.500  
E20  49698722.436   261168551.743        5910.251          42.500  
G 1  22363578.777   117521401.913        6314.264          40.750  
R22  19574195.099   104488382.918        2071.917          52.500  
R 7  19681936.918   105358950.467        4263.398          52.750  
G11  21461861.078   112782847.833        6124.969          40.000  
> 2018  9 12 11 17 36.0000000  0 19                     
G32  23257120.758   122216987.511        5863.583          46.250  
G18  20399734.708   107201328.291        5282.311          49.500  
G 8  20279547.443   106569741.993        2895.548          53.250  
E26  22951120.521   120608950.373        1511.731          50.250  
G10  21404794.782   112482954.778        1406.363          48.250  
R 8  21670965.841   116047036.319        7561.666          49.500  
G27  21337235.660   112127928.097         733.943          50.250  
G22  23898541.256   125587687.894        6892.147          42.500  
R23  20318412.634   108689814.311        6063.033          42.000  
R21  23390714.440   125168466.986        -241.763          41.000  
G20  23311975.667   122505257.508          63.934          41.750  
G14  24363400.109   128030531.356        6487.500          39.750  
E 7  24872567.961   130706221.250        3274.444          50.000  
R 6  21479748.055   114620054.337         318.035          37.250  
E20  49697597.784   261162641.614        5909.548          42.750  
G 1  22362377.270   117515087.933        6313.625          41.000  
R22  19573807.021   104486311.322        2071.042          52.500  
R 7  19681140.586   105354687.632        4262.104          52.750  
G11  21460695.590   112776723.176        6124.185          40.250  
> 2018  9 12 11 17 37.0000000  0 19                     
G32  23256004.969   122211123.928        5863.327          46.250  
G18  20398729.503   107196045.893        5281.983          49.500  
G 8  20278996.439   106566846.472        2895.101          53.250  
E26  22950832.814   120607438.508        1511.677          50.500  
G10  21404527.147   112481548.336        1406.093          48.250  
R 8  21669553.759   116039474.560        7561.457          49.500  
G27  21337096.004   112127194.130         733.638          50.000  
G22  23897229.665   125580795.562        6892.258          42.250  
R23  20317279.162   108683751.179        6062.826          42.000  
R21  23390759.563   125168708.568        -241.901          40.750  
G20  23311963.494   122505193.449          63.836          41.750  
G14  24362165.561   128024043.708        6487.458          39.500  
E 7  24871944.835   130702946.749        3274.124          49.750  
R 6  21479688.474   114619736.474         317.393          37.500  
E20  49696473.187   261156731.799        5909.509          42.750  
G 1  22361175.818   117508774.233        6313.460          40.750  
R22  19573419.052   104484240.274        2070.669          52.500  
R 7  19680344.419   105350425.705        4261.339          52.750  
G11  21459530.168   112770598.856        6124.031          39.750  
> 2018  9 12 11 17 38.0000000  0 19                     
G32  23254889.262   122205260.790        5862.982          46.000  
G18  20397724.378   107190763.953        5281.823          49.500  
G 8  20278445.554   106563951.571        2894.703          53.500  
E26  22950545.161   120605926.892        1511.580          50.250  
G10  21404259.618   112480142.436        1405.777          48.250  
R 8  21668141.771   116031913.209        7561.233          49.500  
G27  21336956.420   112126460.611         733.406          50.000  
G22  23895918.109   125573903.459        6892.067          42.000  
R23  20316145.730   108677688.428        6062.689          42.000  
R21  23390804.731   125168950.362        -241.799          40.250  
G20  23311951.379   122505129.673          63.719          41.750  
G14  24360931.057   128017556.238        6487.616          39.500  
E 7  24871321.809   130699672.785        3273.811          50.000  
R 6  21479629.017   114619419.251         317.064          37.500  
E20  49695348.654   261150822.308        5909.398          42.750  
G 1  22359974.408   117502460.797        6313.361          41.000  
R22  19573031.194   104482169.802        2070.271          52.250  
R 7  19679548.426   105346164.713        4260.611          52.750  
G11  21458364.832   112764474.920        6123.921          40.250  
> 2018  9 12 11 17 39.0000000  0 19                     
G32  23253773.632   122199398.070        5862.417          46.000  
G18  20396719.335   107185482.438        5281.187          49.500  
G 8  20277894.779   106561057.252        2893.947          53.500  
E26  22950257.536   120604415.477        1511.279          50.750  
G10  21403992.179   112478737.035        1405.072          48.250  
R 8  21666729.865   116024352.220        7560.749          49.500  
G27  21336816.923   112125727.509         732.886          50.000  
G22  23894606.586   125567011.519        6891.566          42.000  
R23  20315012.384   108671626.023        6062.125          42.000  
R21  23390849.943   125169192.286        -242.154          40.250  
G20  23311939.309   122505066.131          63.369          41.500  
G14  24359696.576   128011068.916        6487.328          39.000  
E 7  24870698.883   130696399.310        3273.168          50.250  
R 6  21479569.677   114619102.600         316.512          37.500  
E20  49694224.185   261144913.127        5908.942          43.000  
G 1  22358773.045   117496147.615        6312.967          41.000  
R22  19572643.431   104480099.865        2069.568          52.500  
R 7  19678752.607   105341904.638        4259.564          52.750  
G11  21457199.565   112758351.332        6123.375          40.000  
> 2018  9 12 11 17 40.0000000  0 19                     
G32  23252658.091   122193535.839        5861.955          46.000  
G18  20395714.391   107180201.447        5280.764          49.500  
G 8  20277344.127   106558163.583        2893.420          53.500  
E26  22949969.959   120602904.332        1511.029          50.750  
G10  21403724.856   112477332.203        1404.504          48.250  
R 8  21665318.045   116016791.690        7560.310          49.500  
G27  21336677.518   112124994.892         732.477          49.750  
G22  23893295.111   125560119.812        6891.501          42.000  
R23  20313879.053   108665564.024        6061.845          42.750  
R21  23390895.128   125169434.428        -242.354          40.250  
G20  23311927.306   122505002.890          63.146          41.500  
G14  24358462.143   128004581.807        6486.974          39.500  
E 7  24870076.053   130693126.401        3272.732          50.000  
R 6  21479510.495   114618786.653         315.749          37.500  
E20  49693099.789   261139004.316        5908.678          43.000  
G 1  22357571.725   117489834.739        6312.734          40.750  
R22  19572255.772   104478030.511        2069.115          52.500  
R 7  19677956.989   105337645.588        4258.572          52.750  
G11  21456034.366   112752228.156        6122.982          40.250  
> 2018  9 12 11 17 41.0000000  0 19                     
G32  23251542.614   122187673.941        5861.985          45.750  
G18  20394709.519   107174920.833        5280.610          49.500  
G 8  20276793.573   106555270.420        2893.129          53.500  
E26  22949682.400   120601393.319        1511.162          50.750  
G10  21403457.611   112475927.791        1404.425          48.250  
R 8  21663906.302   116009231.503        7560.270          49.750  
G27  21336538.171   112124262.623         732.359          50.000  
G22  23891983.656   125553228.215        6891.955          42.250  
R23  20312745.857   108659502.312        6062.047          42.500  
R21  23390940.351   125169676.704        -242.029          40.250  
G20  23311915.346   122504939.829          63.216          41.250  
G14  24357227.728   127998094.754        6487.303          39.500  
E 7  24869453.306   130689853.928        3272.465          50.250  
R 6  21479451.392   114618471.227         315.261          37.500  
E20  49691975.426   261133095.710        5908.761          43.000  
G 1  22356370.442   117483522.061        6312.796          40.750  
R22  19571868.200   104475961.621        2068.924          52.500  
R 7  19677161.528   105333387.415        4257.957          52.750  
G11  21454869.212   112746105.245        6123.006          40.000  
> 2018  9 12 11 17 42.0000000  0 19                     
G32  23250427.205   122181812.424        5861.289          45.750  
G18  20393704.721   107169640.613        5279.998          49.500  
G 8  20276243.121   106552377.775        2892.384          53.500  
E26  22949394.866   120599882.448        1510.821          50.500  
G10  21403190.462   112474523.828        1403.721          48.250  
R 8  21662494.621   116001671.656        7559.708          49.750  
G27  21336398.887   112123530.702         731.771          50.000  
G22  23890672.240   125546336.746        6891.383          42.250  
R23  20311612.685   108653440.898        6061.254          42.250  
R21  23390985.594   125169919.113        -242.495          40.000  
G20  23311903.411   122504876.933          62.875          41.500  
G14  24355993.325   127991607.781        6486.972          39.250  
E 7  24868830.640   130686581.884        3271.795          50.250  
R 6  21479392.385   114618156.347         314.773          37.500  
E20  49690851.113   261127187.354        5908.153          43.000  
G 1  22355169.186   117477209.549        6312.512          41.000  
R22  19571480.706   104473893.186        2068.203          52.500  
R 7  19676366.229   105329130.073        4256.939          52.750  
G11  21453704.120   112739982.618        6122.487          40.000  
> 2018  9 12 11 17 43.0000000  0 19                     
G32  23249311.856   122175951.271        5860.683          45.750  
G18  20392700.012   107164360.834        5279.314          49.750  
G 8  20275692.782   106549485.689        2891.552          53.500  
E26  22949107.370   120598371.767        1510.322          50.750  
G10  21402923.399   112473120.346        1402.954          48.250  
R 8  21661082.993   115994112.170        7559.067          49.500  
G27  21336259.675   112122799.181         731.086          50.000  
G22  23889360.851   125539445.440        6891.035          42.250  
R23  20310479.655   108647379.799        6060.695          42.000  
R21  23391030.860   125170161.660        -242.814          40.250  
G20  23311891.498   122504814.268          62.347          41.250  
G14  24354758.927   127985120.929        6486.556          39.250  
E 7  24868208.067   130683310.316        3271.084          50.250  
R 6  21479333.505   114617842.038         313.815          37.500  
E20  49689726.854   261121279.273        5907.776          43.000  
G 1  22353967.998   117470897.306        6311.813          41.000  
R22  19571093.307   104471825.257        2067.448          52.750  
R 7  19675571.091   105324873.597        4255.817          52.500  
G11  21452539.104   112733860.313        6121.951          40.250  
> 2018  9 12 11 17 44.0000000  0 19                     
G32  23248196.621   122170090.650        5860.332          45.750  
G18  20391695.409   107159081.601        5279.011          49.500  
G 8  20275142.579   106546594.284        2891.104          53.250  
E26  22948819.930   120596861.380        1510.293          50.500  
G10  21402656.450   112471717.451        1402.617          48.500  
R 8  21659671.433   115986553.147        7558.834          49.500  
G27  21336120.562   112122068.160         730.844          50.000  
G22  23888049.505   125532554.419        6890.956          42.000  
R23  20309346.666   108641319.156        6060.463          42.000  
R21  23391076.171   125170404.433        -242.797          40.250  
G20  23311879.639   122504751.929          62.255          41.250  
G14  24353524.578   127978634.313        6486.737          39.500  
E 7  24867585.607   130680039.337        3270.783          50.000  
R 6  21479274.740   114617528.455         313.390          37.250  
E20  49688602.668   261115371.577        5907.477          43.000  
G 1  22352766.877   117464585.398        6311.771          41.000  
R22  19570706.031   104469757.952        2067.035          52.750  
R 7  19674776.144   105320618.086        4255.097          52.500  
G11  21451374.182   112727738.452        6121.703          40.250  
> 2018  9 12 11 17 45.0000000  0 19                     
G32  23247081.442   122164230.390        5860.157          45.750  
G18  20390690.880   107153802.782        5278.662          49.500  
G 8  20274592.477   106543703.435        2890.663          53.250  
E26  22948532.533   120595351.161        1510.157          50.750  
G10  21402389.583   112470315.012        1402.305          48.500  
R 8  21658259.939   115978994.464        7558.547          49.500  
G27  21335981.520   112121337.515         730.515          50.000  
G22  23886738.193   125525663.529        6890.699          42.500  
R23  20308213.694   108635258.819        6060.185          42.000  
R21  23391121.532   125170647.335        -242.783          40.500  
G20  23311867.824   122504689.801          62.100          41.000  
G14  24352290.260   127972147.810        6486.623          39.750  
E 7  24866963.239   130676768.817        3270.337          50.250  
R 6  21479216.093   114617215.428         312.782          37.250  
E20  49687478.527   261109464.136        5907.309          43.000  
G 1  22351565.786   117458273.689        6311.669          41.250  
R22  19570318.854   104467691.141        2066.659          52.500  
R 7  19673981.357   105316363.440        4254.277          52.500  
G11  21450209.312   112721616.901        6121.415          40.500  
> 2018  9 12 11 17 46.0000000  0 19                     
G32  23245966.349   122158370.556        5859.838          45.500  
G18  20389686.431   107148524.403        5278.271          49.500  
G 8  20274042.483   106540813.157        2890.116          53.250  
E26  22948245.172   120593841.136        1510.038          50.500  
G10  21402122.812   112468913.084        1401.848          48.500  
R 8  21656848.502   115971436.179        7558.219          49.500  
G27  21335842.553   112120607.274         730.260          50.000  
G22  23885426.901   125518772.785        6890.869          42.250  
R23  20307080.779   108629198.816        6059.962          42.000  
R21  23391166.939   125170890.416        -242.952          40.750  
G20  23311856.053   122504627.895          61.908          41.250  
G14  24351055.955   127965661.451        6486.567          39.750  
E 7  24866340.966   130673498.787        3269.932          50.000  
R 6  21479157.587   114616903.032         312.090          37.000  
E20  49686354.439   261103556.995        5907.154          42.750  
G 1  22350364.754   117451962.243        6311.374          41.250  
R22  19569931.786   104465624.864        2066.132          52.750  
R 7  19673186.744   105312109.734        4253.413          52.500  
G11  21449044.510   112715495.666        6121.212          40.500  
> 2018  9 12 11 17 47.0000000  0 19                     
G32  23244851.325   122152511.131        5859.086          45.750  
G18  20388682.065   107143246.473        5277.619          49.750  
G 8  20273492.591   106537923.473        2889.312          53.250  
E26  22947957.856   120592331.323        1509.661          50.500  
G10  21401856.131   112467511.660        1401.018          48.500  
R 8  21655437.131   115963878.309        7557.586          49.500  
G27  21335703.670   112119877.457         729.543          50.000  
G22  23884115.667   125511882.239        6890.472          42.250  
R23  20305947.970   108623139.167        6059.340          42.000  
R21  23391212.393   125171133.661        -243.370          40.750  
G20  23311844.317   122504566.246          61.389          41.250  
G14  24349821.671   127959175.235        6486.110          39.750  
E 7  24865718.789   130670229.256        3269.152          50.000  
R 6  21479099.188   114616591.234         311.321          37.250  
E20  49685230.410   261097650.160        5906.635          42.750  
G 1  22349163.781   117445651.044        6310.975          41.250  
R22  19569544.816   104463559.126        2065.382          52.500  
R 7  19672392.302   105307856.977        4252.208          52.500  
G11  21447879.779   112709374.801        6120.633          40.500  
> 2018  9 12 11 17 48.0000000  0 19                     
G32  23243736.384   122146652.129        5858.929          46.000  
G18  20387677.780   107137968.981        5277.519          49.500  
G 8  20272942.802   106535034.370        2889.009          53.250  
E26  22947670.587   120590821.715        1509.730          50.500  
G10  21401589.543   112466110.728        1400.918          48.500  
R 8  21654025.826   115956320.857        7557.525          49.250  
G27  21335564.865   112119148.069         729.406          50.000  
G22  23882804.466   125504991.869        6890.545          42.500  
R23  20304815.184   108617079.863        6059.326          42.000  
R21  23391257.865   125171377.071        -243.230          41.500  
G20  23311832.622   122504504.831          61.503          41.250  
G14  24348587.411   127952689.145        6486.368          39.750  
E 7  24865096.718   130666960.234        3269.016          49.750  
R 6  21479040.861   114616280.032         310.873          37.250  
E20  49684106.437   261091743.622        5906.609          42.500  
G 1  22347962.868   117439340.108        6310.998          41.500  
R22  19569157.961   104461493.938        2065.101          52.750  
R 7  19671598.029   105303605.147        4251.564          52.500  
G11  21446715.129   112703254.269        6120.524          40.500  
> 2018  9 12 11 17 49.0000000  0 19                     
G32  23242621.515   122140793.504        5858.353          46.000  
G18  20386673.569   107132691.898        5276.742          49.500  
G 8  20272393.109   106532145.805        2888.150          53.250  
E26  22947383.351   120589312.278        1509.195          50.750  
G10  21401323.043   112464710.260        1400.074          48.500  
R 8  21652614.571   115948763.755        7556.781          49.500  
G27  21335426.128   112118419.053         728.596          50.000  
G22  23881493.284   125498101.632        6890.037          42.250  
R23  20303682.501   108611020.887        6058.658          42.250  
R21  23391303.371   125171620.632        -243.693          41.000  
G20  23311820.960   122504443.609          61.030          41.000  
G14  24347353.162   127946203.180        6485.870          39.750  
E 7  24864474.731   130663691.664        3268.194          50.250  
R 6  21478982.651   114615969.408         310.233          37.000  
E20  49682982.513   261085837.331        5906.108          43.000  
G 1  22346761.993   117433029.383        6310.534          41.500  
R22  19568771.192   104459429.244        2064.294          52.750  
R 7  19670803.904   105299354.180        4250.382          52.500  
G11  21445550.499   112697134.039        6119.921          40.250  
> 2018  9 12 11 17 50.0000000  0 19                     
G32  23241506.737   122134935.372        5857.917          46.000  
G18  20385669.453   107127415.340        5276.300          49.500  
G 8  20271843.537   106529257.909        2887.614          53.500  
E26  22947096.158   120587803.107        1509.095          50.750  
G10  21401056.648   112463310.364        1399.725          48.500  
R 8  21651203.382   115941207.105        7556.461          49.500  
G27  21335287.476   112117690.518         728.333          50.000  
G22  23880182.144   125491211.648        6889.805          42.500  
R23  20302549.899   108604962.333        6058.334          42.250  
R21  23391348.934   125171864.446        -243.880          40.750  
G20  23311809.363   122504382.712          60.748          41.000  
G14  24346118.958   127939717.432        6485.591          40.000  
E 7  24863852.857   130660423.662        3267.806          50.000  
R 6  21478924.577   114615659.479         309.727          37.250  
E20  49681858.661   261079931.420        5905.748          43.000  
G 1  22345561.176   117426718.966        6310.421          41.250  
R22  19568384.549   104457365.162        2063.807          52.750  
R 7  19670009.961   105295104.205        4249.493          52.500  
G11  21444385.941   112691014.223        6119.702          40.250  
> 2018  9 12 11 17 51.0000000  0 19                     
G32  23240392.063   122129077.805        5857.276          46.250  
G18  20384665.446   107122139.375        5275.690          49.500  
G 8  20271294.109   106526370.739        2886.795          53.500  
E26  22946809.040   120586294.294        1508.639          50.750  
G10  21400790.378   112461911.126        1398.903          48.500  
R 8  21649792.296   115933650.983        7555.860          49.250  
G27  21335148.931   112116962.545         727.644          50.000  
G22  23878871.061   125484321.994        6889.435          42.500  
R23  20301417.388   108598904.262        6057.848          42.250  
R21  23391394.512   125172108.509        -244.132          41.000  
G20  23311797.844   122504322.191          60.378          41.000  
G14  24344884.814   127933231.972        6485.273          39.500  
E 7  24863231.104   130657156.308        3267.004          50.250  
R 6  21478866.631   114615350.331         308.710          37.250  
E20  49680734.890   261074025.946        5905.299          43.000  
G 1  22344360.448   117420408.969        6309.747          41.500  
R22  19567998.030   104455301.752        2063.077          52.750  
R 7  19669216.211   105290855.299        4248.369          52.500  
G11  21443221.451   112684894.908        6119.024          40.250  
> 2018  9 12 11 17 52.0000000  0 19                     
G32  23239277.470   122123220.621        5856.876          46.250  
G18  20383661.521   107116863.815        5275.211          49.750  
G 8  20270744.790   106523484.118        2886.237          53.500  
E26  22946521.961   120584785.647        1508.424          50.500  
G10  21400524.188   112460512.344        1398.436          48.500  
R 8  21648381.296   115926095.215        7555.464          49.500  
G27  21335010.466   112116234.947         727.352          50.000  
G22  23877560.008   125477432.475        6889.242          42.500  
R23  20300284.977   108592846.505        6057.507          42.250  
R21  23391440.126   125172352.731        -244.350          40.750  
G20  23311786.374   122504261.882          60.097          41.000  
G14  24343650.680   127926746.611        6485.246          39.500  
E 7  24862609.451   130653889.417        3266.515          50.000  
R 6  21478808.811   114615041.760         308.205          37.000  
E20  49679611.171   261068120.747        5904.979          42.750  
G 1  22343159.737   117414099.164        6309.639          41.250  
R22  19567611.607   104453238.841        2062.549          53.000  
R 7  19668422.623   105286607.270        4247.465          52.500  
G11  21442057.023   112678775.903        6118.698          40.500  
> 2018  9 12 11 17 53.0000000  0 19                     
G32  23238162.955   122117363.813        5856.646          46.000  
G18  20382657.678   107111588.668        5275.028          49.750  
G 8  20270195.581   106520598.026        2885.881          53.500  
E26  22946234.905   120583277.162        1508.495          50.750  
G10  21400258.090   112459114.019        1398.189          48.500  
R 8  21646970.351   115918539.799        7555.265          49.500  
G27  21334872.077   112115507.731         727.041          50.000  
G22  23876248.973   125470543.081        6889.457          42.500  
R23  20299152.619   108586789.051        6057.205          42.250  
R21  23391485.734   125172597.089        -244.457          41.000  
G20  23311774.938   122504201.770          60.026          41.000  
G14  24342416.581   127920261.366        6485.295          39.750  
E 7  24861987.874   130650622.975        3266.216          50.000  
R 6  21478751.136   114614733.765         307.558          37.250  
E20  49678487.495   261062215.806        5904.854          43.000  
G 1  22341959.071   117407789.591        6309.499          41.250  
R22  19567225.269   104451176.405        2062.262          52.750  
R 7  19667629.197   105282360.087        4246.845          52.750  
G11  21440892.629   112672657.194        6118.652          40.250  
> 2018  9 12 11 17 54.0000000  0 19                     
G32  23237048.529   122111507.385        5856.124          46.250  
G18  20381653.917   107106313.909        5274.481          49.750  
G 8  20269646.485   106517712.479        2885.249          53.250  
E26  22945947.897   120581768.859        1508.191          50.750  
G10  21399992.081   112457716.163        1397.605          48.250  
R 8  21645559.488   115910984.758        7554.829          49.500  
G27  21334733.763   112114780.882         726.631          50.000  
G22  23874937.963   125463653.830        6889.206          42.500  
R23  20298020.347   108580731.878        6056.979          42.250  
R21  23391531.384   125172841.614        -244.878          40.750  
G20  23311763.548   122504141.857          59.684          41.000  
G14  24341182.496   127913776.220        6485.058          39.500  
E 7  24861366.387   130647356.993        3265.764          50.000  
R 6  21478693.533   114614426.306         307.237          37.250  
E20  49677363.864   261056311.118        5904.456          43.000  
G 1  22340758.445   117401480.235        6309.191          41.250  
R22  19566839.032   104449114.464        2061.640          53.000  
R 7  19666835.931   105278113.774        4245.820          52.500  
G11  21439728.297   112666538.801        6118.198          40.000  
> 2018  9 12 11 17 55.0000000  0 19                     
G32  23235934.147   122105651.187        5855.951          46.500  
G18  20380650.206   107101039.416        5274.239          49.750  
G 8  20269097.468   106514827.329        2884.821          53.250  
E26  22945660.884   120580260.558        1508.150          50.750  
G10  21399726.128   112456318.606        1397.293          48.500  
R 8  21644148.664   115903429.919        7554.580          49.500  
G27  21334595.494   112114054.263         726.380          50.000  
G22  23873626.958   125456764.580        6889.063          42.250  
R23  20296888.131   108574674.881        6056.803          42.250  
R21  23391577.005   125173086.087        -244.652          40.750  
G20  23311752.158   122504081.995          59.678          41.000  
G14  24339948.399   127907291.017        6485.140          39.500  
E 7  24860744.955   130644091.317        3265.410          50.000  
R 6  21478636.002   114614119.244         306.666          37.250  
E20  49676240.252   261050406.539        5904.377          43.000  
G 1  22339557.822   117395170.929        6309.161          41.250  
R22  19566452.842   104447052.845        2061.264          53.000  
R 7  19666042.820   105273868.204        4245.017          52.500  
G11  21438563.983   112660420.549        6118.056          40.000  
> 2018  9 12 11 17 56.0000000  0 19                     
G32  23234819.842   122099795.367        5855.612          46.250  
G18  20379646.580   107095765.344        5273.754          49.750  
G 8  20268548.555   106511942.717        2884.183          53.250  
E26  22945373.901   120578752.425        1507.932          51.000  
G10  21399460.266   112454921.530        1396.668          48.500  
R 8  21642737.921   115895875.430        7554.178          49.500  
G27  21334457.300   112113328.025         725.861          50.250  
G22  23872315.974   125449875.464        6888.839          42.500  
R23  20295756.001   108568618.184        6056.320          42.000  
R21  23391622.628   125173330.688        -244.770          40.500  
G20  23311740.820   122504022.342          59.447          41.000  
G14  24338714.324   127900805.935        6484.971          39.750  
E 7  24860123.613   130640826.106        3264.837          50.250  
R 6  21478578.549   114613812.745         305.944          37.250  
E20  49675116.693   261044502.232        5903.950          43.250  
G 1  22338357.243   117388861.846        6308.879          41.250  
R22  19566066.738   104444991.724        2060.744          53.000  
R 7  19665249.872   105269623.531        4244.112          52.750  
G11  21437399.740   112654302.620        6117.646          40.000  
> 2018  9 12 11 17 57.0000000  0 19                     
G32  23233705.649   122093940.146        5855.077          46.250  
G18  20378643.081   107090491.899        5273.218          49.750  
G 8  20267999.786   106509058.869        2883.542          53.250  
E26  22945087.001   120577244.691        1507.599          50.750  
G10  21399194.536   112453525.132        1396.198          48.500  
R 8  21641327.302   115888321.530        7553.692          49.250  
G27  21334319.220   112112602.388         725.457          50.000  
G22  23871005.059   125442986.728        6888.574          42.750  
R23  20294623.859   108562562.025        6055.958          42.000  
R21  23391668.284   125173575.621        -245.084          40.500  
G20  23311729.569   122503963.120          59.121          41.000  
G14  24337480.310   127894321.191        6484.669          39.500  
E 7  24859502.410   130637561.591        3264.233          50.000  
R 6  21478521.237   114613507.037         305.484          37.000  
E20  49673993.216   261038598.378        5903.707          43.000  
G 1  22337156.759   117382553.201        6308.662          41.250  
R22  19565680.773   104442931.336        2060.085          53.000  
R 7  19664457.139   105265379.964        4243.145          52.750  
G11  21436235.604   112648185.221        6117.203          40.250  
> 2018  9 12 11 17 58.0000000  0 19                     
G32  23232591.566   122088085.503        5854.302          46.500  
G18  20377639.693   107085219.056        5272.440          50.000  
G 8  20267451.158   106506175.753        2882.633          53.250  
E26  22944800.157   120575737.293        1507.109          51.250  
G10  21398928.931   112452129.380        1395.331          48.500  
R 8  21639916.773   115880768.171        7553.031          49.000  
G27  21334181.249   112111877.317         724.631          50.000  
G22  23869694.193   125436098.284        6888.169          42.500  
R23  20293491.874   108556506.389        6055.120          42.000  
R21  23391714.025   125173820.894        -245.775          40.000  
G20  23311718.394   122503904.275          58.466          41.000  
G14  24336246.343   127887836.716        6484.118          39.500  
E 7  24858881.317   130634297.702        3263.406          50.250  
R 6  21478464.049   114613202.094         304.462          37.250  
E20  49672869.832   261032694.996        5903.116          43.500  
G 1  22335956.358   117376244.963        6307.827          41.000  
R22  19565294.924   104440871.619        2059.250          53.000  
R 7  19663664.606   105261137.425        4241.923          52.750  
G11  21435071.585   112642068.305        6116.642          40.000  
> 2018  9 12 11 17 59.0000000  0 19                     
G32  23231477.570   122082231.299        5853.807          46.500  
G18  20376636.399   107079946.699        5271.925          50.000  
G 8  20266902.649   106503293.252        2882.029          53.250  
E26  22944513.358   120574230.134        1506.896          51.000  
G10  21398663.426   112450734.155        1394.826          48.500  
R 8  21638506.321   115873215.244        7552.529          49.250  
G27  21334043.355   112111152.672         724.288          50.250  
G22  23868383.375   125429210.075        6887.900          42.500  
R23  20292359.868   108550451.118        6054.635          41.500  
R21  23391759.751   125174066.298        -245.643          40.250  
G20  23311707.265   122503845.684          58.285          41.000  
G14  24335012.423   127881352.407        6484.134          40.000  
E 7  24858260.321   130631034.338        3262.949          50.000  
R 6  21478406.973   114612897.759         303.909          37.500  
E20  49671746.511   261026791.923        5902.772          43.250  
G 1  22334755.990   117369936.980        6307.632          41.250  
R22  19564909.180   104438812.465        2058.703          53.000  
R 7  19662872.249   105256895.820        4240.992          52.750  
G11  21433907.632   112635951.777        6116.132          40.000  
